[
  {
    "nombre": "La Oficina de John Monroe",
    "ubicacion": "Paseo del Gran Capitán, 23 37006 Salamanca España",
    "web": "http://roomescapesalamanca.com/juegos-escape-habitaciones/",
    "genero": "Investigación",
    "puntuacion": "No disponible",
    "precio": "€ Desde 9€ por persona",
    "jugadores": "De 2 a 6 jugadores",
    "descripcion": "El misterioso Legado de Laozi está a punto de ser desvelado",
    "latitud": 40.9688,
    "longitud": -5.6639
  },
  {
    "nombre": "La Entrevista",
    "ubicacion": "Calle Duc de Crillón, 7, Maó 07703 Menorca España",
    "web": "https://www.cubickmenorca.com/",
    "genero": "Investigación",
    "puntuacion": "No disponible",
    "precio": "€ Desde 0€ por persona",
    "jugadores": "De 2 a 6 jugadores",
    "descripcion": "No disponible",
    "latitud": 39.8885,
    "longitud": 4.2658
  },
  {
    "nombre": "El Último Caso de Max Malone",
    "ubicacion": "Calle Castelldefels, 6 12004 Castellón España",
    "web": "https://www.thesafekey.es/el-ultimo-caso-de-max-malone/",
    "genero": "Investigación",
    "puntuacion": "No disponible",
    "precio": "€ Desde 0€ por persona",
    "jugadores": "De 2 a 5 jugadores",
    "descripcion": "¿Seréis capaces de entrar al grupo selecto de los templarios?",
    "latitud": 39.9916098,
    "longitud": -0.0328908
  },
  {
    "nombre": "Penitenciario de Northwind",
    "ubicacion": "Calle Llobregat, 2D 17600 Figueres España",
    "web": "https://kiwiescaperoom.com/es/penitenciario-de-northwind/",
    "genero": "Acción",
    "puntuacion": "No disponible",
    "precio": "€ Desde 14€ por persona",
    "jugadores": "De 2 a 5 jugadores",
    "descripcion": "¿Qué podría salir mal en esta maravillosa noche de premiación?",
    "latitud": 42.2664,
    "longitud": 2.9616
  },
  {
    "nombre": "White & Black",
    "ubicacion": "Calle Gran Vía, 16 28013 Madrid España",
    "web": "https://www.thexdoormadrid.com/",
    "genero": "Misterio",
    "puntuacion": "No disponible",
    "precio": "€ Desde 9€ por persona",
    "jugadores": "De 2 a 8 jugadores",
    "descripcion": "Este casino está involucrado en una trama criminal llena de corrupción, así que ya sabéis ¡que pierda la banca!",
    "latitud": 40.4682967,
    "longitud": -3.8707093
  },
  {
    "nombre": "Los Cinco",
    "ubicacion": "Calle Alfonso el Batallador, 9 31007 Pamplona España",
    "web": "/",
    "genero": "Misterio",
    "puntuacion": "10",
    "precio": "€ Desde 0€ por persona",
    "jugadores": "De 8 a 8 jugadores",
    "descripcion": "El mago ha tenido sus secretos robados y tenéis 60 minutos para recuperarlo",
    "latitud": 42.8169,
    "longitud": -1.6432
  },
  {
    "nombre": "En Busca del Arca de la Alianza",
    "ubicacion": "Plaza del Monte, 1 04003 Almería España",
    "web": "/",
    "genero": "Aventura",
    "puntuacion": "No disponible",
    "precio": "€ Desde 10€ por persona",
    "jugadores": "De 2 a 6 jugadores",
    "descripcion": "Embarcaréis en una aventura de ciencia ficción para evitar la extinción de la raza humana",
    "latitud": 36.8415388,
    "longitud": -2.466247
  },
  {
    "nombre": "El Laboratorio del Dr. Strauss",
    "ubicacion": "Calle de Sant Xavier, 27 43700 Vendrell España",
    "web": "/",
    "genero": "Misterio",
    "puntuacion": "No disponible",
    "precio": "€ Desde 13€ por persona",
    "jugadores": "De 2 a 8 jugadores",
    "descripcion": "No disponible",
    "latitud": 41.2167,
    "longitud": 1.5333
  },
  {
    "nombre": "Se Abre la Puja",
    "ubicacion": "Calle Herrán, 43 01002 Vitoria España",
    "web": "/",
    "genero": "Misterio",
    "puntuacion": "No disponible",
    "precio": "€ Desde 25€ por persona",
    "jugadores": "De 7 a 8 jugadores",
    "descripcion": "Hall game para grupos de 6 a 12 jugadores que quieran disfrutar de una experiencia diferente y descifrar enigmas",
    "latitud": 42.8516317,
    "longitud": -2.6669899
  },
  {
    "nombre": "Contagio",
    "ubicacion": "Call Peri, 15, Número 1 12006 Castellón España",
    "web": "/",
    "genero": "Sci-fi",
    "puntuacion": "No disponible",
    "precio": "€ Desde 12€ por persona",
    "jugadores": "De 2 a 6 jugadores",
    "descripcion": "¿Seréis capaces de entrar al grupo selecto de los templarios?",
    "latitud": 40.2108,
    "longitud": 0.0272
  },
  {
    "nombre": "Escape Bull",
    "ubicacion": "Imagen del Santo, la Cuesta de Santo Domingo 31001 Pamplona España",
    "web": "/",
    "genero": "Aventura",
    "puntuacion": "No disponible",
    "precio": "€ Desde 10€ por persona",
    "jugadores": "De 1 a 5 jugadores",
    "descripcion": "En los próximos 75 minutos confrontaréis vuestros recuerdos perdidos a través de un tratamiento experimental",
    "latitud": 42.8169,
    "longitud": -1.6432
  },
  {
    "nombre": "Escuela de Magia",
    "ubicacion": "Bulevar Louis Pasteur, 9, Local 2 29010 Málaga España",
    "web": "/",
    "genero": "Fantasía",
    "puntuacion": "9.6",
    "precio": "€ Desde 12€ por persona",
    "jugadores": "De 5 a 6 jugadores",
    "descripcion": "¡Preparad para entrar en el mundo misterioso del espionaje y averiguar la verdad oculta en la historia!",
    "latitud": 36.7202,
    "longitud": -4.4203
  },
  {
    "nombre": "Laboratorio X96",
    "ubicacion": "Calle Lavaderos, 77-89 09007 Burgos España",
    "web": "/",
    "genero": "Sci-fi",
    "puntuacion": "10",
    "precio": "€ Desde 15€ por persona",
    "jugadores": "De 2 a 5 jugadores",
    "descripcion": "¿Preparad@s para escapar de este almacén en los próximos 60 minutos?",
    "latitud": 42.3502,
    "longitud": -3.6753
  },
  {
    "nombre": "Jezabel",
    "ubicacion": "Calle Santa María, 16 47610 Zaratán España",
    "web": "/",
    "genero": "Fantasía",
    "puntuacion": "No disponible",
    "precio": "€ Desde 14€ por persona",
    "jugadores": "De 2 a 5 jugadores",
    "descripcion": "¡El Asesino de la Máscara ataca nuevamente y, esta vez, está en Valladolid!",
    "latitud": 41.6599624,
    "longitud": -4.7852812
  },
  {
    "nombre": "La Mina",
    "ubicacion": "Calle Bacardi, 32 08902 Hospitalet de Llobregat España",
    "web": "/",
    "genero": "Aventura",
    "puntuacion": "10",
    "precio": "€ Desde 24€ por persona",
    "jugadores": "No sabemos todavía el número final de jugadores ¿Pueden cambiarse después?",
    "descripcion": "¡Estáis a punto de entrar en una misión explosiva en un piso franco!",
    "latitud": 41.4301,
    "longitud": 2.1925
  },
  {
    "nombre": "Hidden Hill Hotel",
    "ubicacion": "1.7217402 41.2205182 Vilanova España",
    "web": "/",
    "genero": "Misterio",
    "puntuacion": "8.8",
    "precio": "€ Desde 16€ por persona",
    "jugadores": "De 2 a 5 jugadores",
    "descripcion": "Estáis invitados a una fiesta en el bosque con todos vuestros colegas ¿Qué puede salir mal?",
    "latitud": 41.22392,
    "longitud": 1.72511
  },
  {
    "nombre": "Zamueco",
    "ubicacion": "-0.4149809 42.1386177 Huesca España",
    "web": "/",
    "genero": "Acción",
    "puntuacion": "No disponible",
    "precio": "€ Desde 10€ por persona",
    "jugadores": "De 2 a 6 jugadores",
    "descripcion": "¡Invadid este banco nacional y poned las manos en el botín!",
    "latitud": 42.13615,
    "longitud": -0.4087
  },
  {
    "nombre": "La Mazmorra: la última partida",
    "ubicacion": "Carrer de Girona, 27 08010 Barcelona España",
    "web": "/",
    "genero": "Aventura",
    "puntuacion": "9.7",
    "precio": "€ Desde 20€ por persona",
    "jugadores": "No sabemos todavía el número final de jugadores ¿Pueden cambiarse después?",
    "descripcion": "Experiencia futurista hiperrealista, que exigirá vuestras capacidades intelectuales y emocionales para poder escapar.",
    "latitud": 41.3888,
    "longitud": 2.159
  },
  {
    "nombre": "El Enigma de la Tumba del Faraón",
    "ubicacion": "Calle Periodista del Campo Aguilar, 15 02002 Albacete España",
    "web": "/",
    "genero": "Aventura",
    "puntuacion": "10",
    "precio": "€ Desde 10€ por persona",
    "jugadores": "De 2 a 6 jugadores",
    "descripcion": "¡Pon a prueba tus habilidades y entra al selecto equipo de agentes secretos del gobierno!",
    "latitud": 38.9942,
    "longitud": -1.8564
  },
  {
    "nombre": "La Fuga de Azkapar",
    "ubicacion": "Calle Caballero de Rodas, 162 03182 Aguadulce España",
    "web": "/",
    "genero": "Aventura",
    "puntuacion": "No disponible",
    "precio": "€ Desde 0€ por persona",
    "jugadores": "De 2 a 6 jugadores",
    "descripcion": "En mundo de la fábula necesita vuestra ayuda para derrotar una poderosa fuerza del mal y devolver la paz al reino",
    "latitud": 36.81409,
    "longitud": -2.57235
  },
  {
    "nombre": "El Tesoro de Ramsés",
    "ubicacion": "Avenida Sabinal, 319 04740 Roquetas de Mar España",
    "web": "/",
    "genero": "Aventura",
    "puntuacion": "10",
    "precio": "€ Desde 10€ por persona",
    "jugadores": "De 2 a 6 jugadores",
    "descripcion": "En este escape room virtual, la misión es restablecer la linealidad espacio-temporal a la humanidad",
    "latitud": 36.7642,
    "longitud": -2.6147
  },
  {
    "nombre": "Reclutas",
    "ubicacion": "Gran Via de les Corts Catalanes, 926 08018 Barcelona España",
    "web": "/",
    "genero": "Acción",
    "puntuacion": "8.4",
    "precio": "€ Desde 12€ por persona",
    "jugadores": "De 6 a 8 jugadores",
    "descripcion": "Estáis invitados a una fiesta en el bosque con todos vuestros colegas ¿Qué puede salir mal?",
    "latitud": 41.66667,
    "longitud": 2.0
  },
  {
    "nombre": "El Legado de Verne",
    "ubicacion": "Estrada do Vilar, 73 36214 Vigo España",
    "web": "/",
    "genero": "Sci-fi",
    "puntuacion": "9.6",
    "precio": "€ Desde 10€ por persona",
    "jugadores": "De 6 a 8 jugadores",
    "descripcion": "Juego virtual de acción diseñado para hasta 4 jugadores",
    "latitud": 42.2328,
    "longitud": -8.7226
  },
  {
    "nombre": "Última Función",
    "ubicacion": "Calle San José, 5, 47007 Valladolid España",
    "web": "/",
    "genero": "Misterio",
    "puntuacion": "No disponible",
    "precio": "€ Desde 10€ por persona",
    "jugadores": "De 2 a 5 jugadores",
    "descripcion": "¡El Asesino de la Máscara ataca nuevamente y, esta vez, está en Valladolid!",
    "latitud": 41.6104897,
    "longitud": -4.7967282
  },
  {
    "nombre": "Operación Kraken",
    "ubicacion": "Pje.Granada, 2 03130 Santa Pola España",
    "web": "/",
    "genero": "Investigación",
    "puntuacion": "10",
    "precio": "€ Desde 0€ por persona",
    "jugadores": "De 2 a 6 jugadores",
    "descripcion": "¿Qué pasará dentro de La Casa Encantada? Vuestro equipo está a punto de conocer la respuesta.",
    "latitud": 38.1916,
    "longitud": -0.5658
  },
  {
    "nombre": "El Juego de Ariel",
    "ubicacion": "Avinguda Ventura Gassol, 29 08901 Hospitalet de Llobregat España",
    "web": "/",
    "genero": "Miedo",
    "puntuacion": "9.3",
    "precio": "€ Desde 14€ por persona",
    "jugadores": "No sabemos todavía el número final de jugadores ¿Pueden cambiarse después?",
    "descripcion": "Os habéis despertado en un lugar extraño, atrapados por un psicópata que jugará con vosotros de manera aterradora",
    "latitud": 41.35967,
    "longitud": 2.10028
  },
  {
    "nombre": "EllebannA",
    "ubicacion": "Calle Marinel·lo Bosch, 19 08222 Terrassa España",
    "web": "/",
    "genero": "Miedo",
    "puntuacion": "No disponible",
    "precio": "€ Desde 20€ por persona",
    "jugadores": "De 2 a 7 jugadores",
    "descripcion": "Estáis invitados a una fiesta en el bosque con todos vuestros colegas ¿Qué puede salir mal?",
    "latitud": 41.5667,
    "longitud": 2.0167
  },
  {
    "nombre": "A Bordo",
    "ubicacion": "Calle Lirio, 8 13003 Ciudad Real España",
    "web": "/",
    "genero": "Aventura",
    "puntuacion": "10",
    "precio": "€ Desde 15€ por persona",
    "jugadores": "De 8 a 8 jugadores",
    "descripcion": "No disponible",
    "latitud": 38.9863,
    "longitud": -3.9291
  },
  {
    "nombre": "La herencia de los Balaguer",
    "ubicacion": "Calle Boltaña, 40, (Nave 1) 28022 Madrid España",
    "web": "/",
    "genero": "Miedo",
    "puntuacion": "9.7",
    "precio": "€ Desde 28€ por persona",
    "jugadores": "No sabemos todavía el número final de jugadores ¿Pueden cambiarse después?",
    "descripcion": "Vuestro equipo de escapers se embarcará en una aventura de miedo en la casa de los Balaguer ¡Valientes!",
    "latitud": 40.4165,
    "longitud": -3.7026
  },
  {
    "nombre": "Operación Siberia",
    "ubicacion": "Avenida América, 6 30202 Cartagena España",
    "web": "/",
    "genero": "Investigación",
    "puntuacion": "No disponible",
    "precio": "€ Desde 11€ por persona",
    "jugadores": "De 2 a 6 jugadores",
    "descripcion": "Escape con opción portátil, completamente personalizable y con modalidad kids y adult@s",
    "latitud": 37.6041686,
    "longitud": -0.9767482
  },
  {
    "nombre": "El Crimen en Lucky Ducky",
    "ubicacion": "Calle Herrán, 43 01002 Vitoria España",
    "web": "/",
    "genero": "Misterio",
    "puntuacion": "No disponible",
    "precio": "€ Desde 25€ por persona",
    "jugadores": "De 8 a 8 jugadores",
    "descripcion": "Hall game para grupos de 6 a 12 jugadores que quieran disfrutar de una experiencia diferente y descifrar enigmas",
    "latitud": 42.8516317,
    "longitud": -2.6669899
  },
  {
    "nombre": "Daemonium",
    "ubicacion": "Calle Miguel de Unamuno, s/n 39012 Santander España",
    "web": "/",
    "genero": "Miedo",
    "puntuacion": "No disponible",
    "precio": "€ Desde 20€ por persona",
    "jugadores": "De 2 a 6 jugadores",
    "descripcion": "El posadero del Puerto Barrilete tiene algo que ofrecer a l@s aventurer@s más intrépid@s",
    "latitud": 36.7171474,
    "longitud": -6.0870648
  },
  {
    "nombre": "Press to Start",
    "ubicacion": "Calle Alfonso XI, 62 41005 Sevilla España",
    "web": "/",
    "genero": "Aventura",
    "puntuacion": "No disponible",
    "precio": "€ Desde 15€ por persona",
    "jugadores": "De 2 a 6 jugadores",
    "descripcion": "¡Bienvenidos a la última presentación de este legendario circo!",
    "latitud": 37.3797743,
    "longitud": -5.9639747
  },
  {
    "nombre": "Bahía del Pequeño Pirata",
    "ubicacion": "Calle Marqués de Santillana, 19 39004 Santander España",
    "web": "/",
    "genero": "Infantil",
    "puntuacion": "No disponible",
    "precio": "€ Desde 15€ por persona",
    "jugadores": "De 2 a 8 jugadores",
    "descripcion": "El posadero del Puerto Barrilete tiene algo que ofrecer a l@s aventurer@s más intrépid@s",
    "latitud": 43.4645609,
    "longitud": -3.787839
  },
  {
    "nombre": "Destino Hawaii",
    "ubicacion": "Calle Huertas de la polaca, 9 049880 Tijola España",
    "web": "/",
    "genero": "Aventura",
    "puntuacion": "No disponible",
    "precio": "€ Desde 13€ por persona",
    "jugadores": "De 2 a 4 jugadores",
    "descripcion": "No disponible",
    "latitud": 37.34606,
    "longitud": -2.43326
  },
  {
    "nombre": "La Conquista del Oeste: Solo Ante el Peligro",
    "ubicacion": "Calle Camino Llano, 9 10002 Cáceres España",
    "web": "/",
    "genero": "Aventura",
    "puntuacion": "No disponible",
    "precio": "€ Desde 12€ por persona",
    "jugadores": "De 2 a 6 jugadores",
    "descripcion": "¿Qué puede salir con este maravilloso viaje que ganasteis en un concurso?",
    "latitud": 39.4714182,
    "longitud": -6.3737569
  },
  {
    "nombre": "El Caso",
    "ubicacion": "Calle Lirio, 8 13003 Ciudad Real España",
    "web": "/",
    "genero": "Investigación",
    "puntuacion": "10",
    "precio": "€ Desde 15€ por persona",
    "jugadores": "De 8 a 8 jugadores",
    "descripcion": "No disponible",
    "latitud": 38.9863,
    "longitud": -3.9291
  },
  {
    "nombre": "La Guarida de Máximo Max",
    "ubicacion": "Calle Antonio Cano, 69 04009 Almería España",
    "web": "/",
    "genero": "Sci-fi",
    "puntuacion": "10",
    "precio": "€ Desde 13€ por persona",
    "jugadores": "De 2 a 6 jugadores",
    "descripcion": "Embarcaréis en una aventura de ciencia ficción para evitar la extinción de la raza humana",
    "latitud": 36.8381,
    "longitud": -2.4597
  },
  {
    "nombre": "El Legado de Verne",
    "ubicacion": "Estrada do Vilar, 73 36214 Vigo España",
    "web": "/",
    "genero": "Sci-fi",
    "puntuacion": "9.6",
    "precio": "€ Desde 10€ por persona",
    "jugadores": "De 6 a 8 jugadores",
    "descripcion": "Juego virtual de acción diseñado para hasta 4 jugadores",
    "latitud": 42.2328,
    "longitud": -8.7226
  },
  {
    "nombre": "Invasion Alien",
    "ubicacion": "Calle Montero Ríos, 34 36201 Vigo España",
    "web": "/",
    "genero": "Sci-fi",
    "puntuacion": "No disponible",
    "precio": "€ Desde 10€ por persona",
    "jugadores": "De 2 a 3 jugadores",
    "descripcion": "Estáis a punto de desvendar los misterios detrás de las reliquias del Apóstol Santiago",
    "latitud": 42.2328,
    "longitud": -8.7226
  },
  {
    "nombre": "Escuela de Cadetes",
    "ubicacion": "Paseo Rosales, 24-26 50008 Zaragoza España",
    "web": "/",
    "genero": "Infantil",
    "puntuacion": "No disponible",
    "precio": "€ Desde 13€ por persona",
    "jugadores": "De 5 a 8 jugadores",
    "descripcion": "¿Qué habrá pasado realmente entre Julio Verne y Georges Méliès?",
    "latitud": 41.6400075,
    "longitud": -0.8787401
  },
  {
    "nombre": "Concurs de Disfrasses",
    "ubicacion": "Calle Barris i Buixó, 50 17200 Palafrugell España",
    "web": "/",
    "genero": "Misterio",
    "puntuacion": "6.4",
    "precio": "€ Desde 20€ por persona",
    "jugadores": "De 8 a 8 jugadores",
    "descripcion": "Reunid vuestro mejor equipo para deshacer el hechizo de la sirena",
    "latitud": 41.9174,
    "longitud": 3.1631
  },
  {
    "nombre": "Rincón Malillo",
    "ubicacion": "Plaza Compañía, 11 11403 Jerez de la Frontera España",
    "web": "/",
    "genero": "Misterio",
    "puntuacion": "10",
    "precio": "€ Desde 10€ por persona",
    "jugadores": "De 2 a 5 jugadores",
    "descripcion": "¡En este juego repleto de misterios, pondréis vuestras habilidades a prueba para escapar del Monasterio!",
    "latitud": 36.6865,
    "longitud": -6.1361
  },
  {
    "nombre": "Operativo Boom",
    "ubicacion": "Carrer Joan Maragall, 99 08303 Mataró España",
    "web": "/",
    "genero": "Acción",
    "puntuacion": "9.6",
    "precio": "€ Desde 15€ por persona",
    "jugadores": "De 2 a 8 jugadores",
    "descripcion": "Estáis invitados a una fiesta en el bosque con todos vuestros colegas ¿Qué puede salir mal?",
    "latitud": 41.5421,
    "longitud": 2.4445
  },
  {
    "nombre": "Secretos de la Antigua Barcelona",
    "ubicacion": "Plaza Catalunya (punto de inicio del juego) 08002 Barcelona España",
    "web": "/",
    "genero": "Misterio",
    "puntuacion": "10",
    "precio": "€ Desde 12€ por persona",
    "jugadores": "De 2 a 6 jugadores",
    "descripcion": "Estáis invitados a una fiesta en el bosque con todos vuestros colegas ¿Qué puede salir mal?",
    "latitud": 41.3888,
    "longitud": 2.159
  },
  {
    "nombre": "El Asesino de la Máscara",
    "ubicacion": "Calle Lope de vega, 9 24002 León España",
    "web": "/",
    "genero": "Investigación",
    "puntuacion": "No disponible",
    "precio": "€ Desde 12€ por persona",
    "jugadores": "De 2 a 4 jugadores",
    "descripcion": "Tendréis 60 minutos para luchar por vuestras vidas y probar que sois dign@s de seguir habitando este planeta...",
    "latitud": 42.5997112,
    "longitud": -5.572478
  },
  {
    "nombre": "El Experimento",
    "ubicacion": "Calle Tirso de Molina, 10 33204 Gijón España",
    "web": "/",
    "genero": "Misterio",
    "puntuacion": "No disponible",
    "precio": "€ Desde 14€ por persona",
    "jugadores": "De 2 a 7 jugadores",
    "descripcion": "¡Ayudad a salvar el mundo de la magia de las fuerzas del mal!",
    "latitud": 43.5330622,
    "longitud": -5.6475988
  },
  {
    "nombre": "Ciudad Omega",
    "ubicacion": "Avenida Infante Juan Manuel, 10, Bajo 30010 Murcia España",
    "web": "/",
    "genero": "Sci-fi",
    "puntuacion": "No disponible",
    "precio": "€ Desde 12€ por persona",
    "jugadores": "De 2 a 6 jugadores",
    "descripcion": "¡Se buscan pequeñ@s escapistas para embarcar en una aventura detectivesca en medio de la  selva!",
    "latitud": 37.9806333,
    "longitud": -1.1270073
  },
  {
    "nombre": "El Último Vikingo",
    "ubicacion": "Plaza La Moneda, 9 22001 Huesca España",
    "web": "/",
    "genero": "Aventura",
    "puntuacion": "No disponible",
    "precio": "€ Desde 13€ por persona",
    "jugadores": "De 6 a 8 jugadores",
    "descripcion": "¡Invadid este banco nacional y poned las manos en el botín!",
    "latitud": 42.1385835,
    "longitud": -0.406228
  },
  {
    "nombre": "Behind the Scenes",
    "ubicacion": "Avenida Playa Serena, 36 04740 Roquetas de Mar España",
    "web": "/",
    "genero": "Misterio",
    "puntuacion": "No disponible",
    "precio": "€ Desde 16€ por persona",
    "jugadores": "De 2 a 4 jugadores",
    "descripcion": "Esta aventura os llevará directos al tesoro perdido del faraón. ¡Preparad para la misión!",
    "latitud": 36.7250966,
    "longitud": -2.6289733
  },
  {
    "nombre": "La Reliquias de los Templarios",
    "ubicacion": "Calle Madrid, 15, Frente UC3M 28911 Leganés España",
    "web": "/",
    "genero": "Aventura",
    "puntuacion": "No disponible",
    "precio": "€ Desde 14€ por persona",
    "jugadores": "De 2 a 6 jugadores",
    "descripcion": "Este casino está involucrado en una trama criminal llena de corrupción, así que ya sabéis ¡que pierda la banca!",
    "latitud": 40.3272,
    "longitud": -3.7635
  },
  {
    "nombre": "La Trementinaire",
    "ubicacion": "Carrer Cortina, 18 08720 Vilafranca España",
    "web": "/",
    "genero": "Misterio",
    "puntuacion": "8.7",
    "precio": "€ Desde 15€ por persona",
    "jugadores": "De 2 a 6 jugadores",
    "descripcion": "Estáis invitados a una fiesta en el bosque con todos vuestros colegas ¿Qué puede salir mal?",
    "latitud": 39.56878,
    "longitud": 3.08613
  },
  {
    "nombre": "El Misterio de Ordoño II",
    "ubicacion": "Calle Lope de vega, 9 24002 León España",
    "web": "/",
    "genero": "Investigación",
    "puntuacion": "No disponible",
    "precio": "€ Desde 15€ por persona",
    "jugadores": "De 1 a 8 jugadores",
    "descripcion": "Tendréis 60 minutos para luchar por vuestras vidas y probar que sois dign@s de seguir habitando este planeta...",
    "latitud": 42.5997112,
    "longitud": -5.572478
  },
  {
    "nombre": "En Busca de la Piedra Filosofal",
    "ubicacion": "Calle Diego María Crehuet, 23 10002 Cáceres España",
    "web": "/",
    "genero": "Fantasía",
    "puntuacion": "10",
    "precio": "€ Desde 0€ por persona",
    "jugadores": "De 2 a 8 jugadores",
    "descripcion": "¿Qué puede salir con este maravilloso viaje que ganasteis en un concurso?",
    "latitud": 39.4765,
    "longitud": -6.3722
  },
  {
    "nombre": "El Gabinete de Madame Sisla",
    "ubicacion": "Calle de l'Església, 9 43840 Salou España",
    "web": "/",
    "genero": "Misterio",
    "puntuacion": "No disponible",
    "precio": "€ Desde 15€ por persona",
    "jugadores": "De 2 a 6 jugadores",
    "descripcion": "¿Seréis capaces de escapar en los próximos 60 minutos?",
    "latitud": 41.0766,
    "longitud": 1.1416
  },
  {
    "nombre": "Sleepy Hollow",
    "ubicacion": "Avenida Playa Serena, 36 04740 Roquetas de Mar España",
    "web": "/",
    "genero": "Misterio",
    "puntuacion": "No disponible",
    "precio": "€ Desde 16€ por persona",
    "jugadores": "De 2 a 4 jugadores",
    "descripcion": "Esta aventura os llevará directos al tesoro perdido del faraón. ¡Preparad para la misión!",
    "latitud": 36.7250966,
    "longitud": -2.6289733
  },
  {
    "nombre": "El Antídoto Survival",
    "ubicacion": "Calle Río Ventalama, 5 45007 Toledo España",
    "web": "/",
    "genero": "Sci-fi",
    "puntuacion": "No disponible",
    "precio": "€ Desde 10€ por persona",
    "jugadores": "De 2 a 6 jugadores",
    "descripcion": "No disponible",
    "latitud": 39.8581,
    "longitud": -4.0226
  },
  {
    "nombre": "Pandora",
    "ubicacion": "Calle Duque Severiano, 3 30205 Cartagena España",
    "web": "/",
    "genero": "Fantasía",
    "puntuacion": "8.8",
    "precio": "€ Desde 13€ por persona",
    "jugadores": "De 1 a 4 jugadores",
    "descripcion": "Tenéis 60 minutos para escapar de una prisión de máxima seguridad. ¡No desperdiciéis esta oportunidad!",
    "latitud": 37.6051,
    "longitud": -0.9862
  },
  {
    "nombre": "Portal Mágico",
    "ubicacion": "Calle Quevedo, 7 33204 Gijón España",
    "web": "/",
    "genero": "Fantasía",
    "puntuacion": "No disponible",
    "precio": "€ Desde 10€ por persona",
    "jugadores": "De 2 a 6 jugadores",
    "descripcion": "¡Ayudad a salvar el mundo de la magia de las fuerzas del mal!",
    "latitud": 43.5319293,
    "longitud": -5.6551666
  },
  {
    "nombre": "The Last Show",
    "ubicacion": "Calle Hernán Ruiz, 45 41006 Sevilla España",
    "web": "/",
    "genero": "Miedo",
    "puntuacion": "8.9",
    "precio": "€ Desde 20€ por persona",
    "jugadores": "De 2 a 7 jugadores",
    "descripcion": "Escape room portátil ideal para grupos grandes y empresas",
    "latitud": 37.3824,
    "longitud": -5.9761
  },
  {
    "nombre": "Náufrago",
    "ubicacion": "Calle Zapatería, 6 01001 Vitoria España",
    "web": "/",
    "genero": "Aventura",
    "puntuacion": "10",
    "precio": "€ Desde 14€ por persona",
    "jugadores": "De 3 a 6 jugadores",
    "descripcion": "Aislados en un bunker, tendréis que enfrentaros a acertijos y descifrar enigmas para sobrevivir",
    "latitud": 42.85,
    "longitud": -2.6727
  },
  {
    "nombre": "Asalto a Banca Corleone",
    "ubicacion": "Calle Marie Curie, 4, C.C. H20 28521 Rivas-Vaciamadrid España",
    "web": "/",
    "genero": "Acción",
    "puntuacion": "No disponible",
    "precio": "€ Desde 16€ por persona",
    "jugadores": "De 4 a 8 jugadores",
    "descripcion": "Este casino está involucrado en una trama criminal llena de corrupción, así que ya sabéis ¡que pierda la banca!",
    "latitud": 40.3380471,
    "longitud": -3.5250578
  },
  {
    "nombre": "House of Fear",
    "ubicacion": "Calle Doctor Cadaval, 4 36202 Vigo España",
    "web": "/",
    "genero": "Virtual",
    "puntuacion": "8.8",
    "precio": "€ Desde 16€ por persona",
    "jugadores": "De 2 a 4 jugadores",
    "descripcion": "Estáis a punto de desvendar los misterios detrás de las reliquias del Apóstol Santiago",
    "latitud": 42.2328,
    "longitud": -8.7226
  },
  {
    "nombre": "El Asesino de la Máscara",
    "ubicacion": "xxx 000 Cáceres España",
    "web": "/",
    "genero": "Investigación",
    "puntuacion": "No disponible",
    "precio": "€ Desde 12€ por persona",
    "jugadores": "De 2 a 4 jugadores",
    "descripcion": "Escape room portátil para grupos hasta 6 jugadores",
    "latitud": 39.47649,
    "longitud": -6.37224
  },
  {
    "nombre": "La Guardia Secreta",
    "ubicacion": "Calle d'Anselm Clavé, 28 08291 Ripollet España",
    "web": "/",
    "genero": "Infantil",
    "puntuacion": "No disponible",
    "precio": "€ Desde 18€ por persona",
    "jugadores": "De 3 a 6 jugadores",
    "descripcion": "Estáis invitados a una fiesta en el bosque con todos vuestros colegas ¿Qué puede salir mal?",
    "latitud": 41.4969,
    "longitud": 2.1574
  },
  {
    "nombre": "Dimensión Paralela",
    "ubicacion": "Avenida de Manuel Agustín Heredia, 20, 6/2 29001 Málaga España",
    "web": "/",
    "genero": "Sci-fi",
    "puntuacion": "10",
    "precio": "€ Desde 13€ por persona",
    "jugadores": "De 4 a 6 jugadores",
    "descripcion": "¿Os atrevéis a robar el diamante de la suerte y escapar antes de que el tiempo se acabe?",
    "latitud": 36.72016,
    "longitud": -4.42034
  },
  {
    "nombre": "Tomb",
    "ubicacion": "Calle Marbella, 15 07610 Palma de Mallorca España",
    "web": "/",
    "genero": "Misterio",
    "puntuacion": "No disponible",
    "precio": "€ Desde 12€ por persona",
    "jugadores": "De 2 a 7 jugadores",
    "descripcion": "No disponible",
    "latitud": 39.5248,
    "longitud": 2.7431
  },
  {
    "nombre": "El Enigma del IIIº Reich",
    "ubicacion": "Calle Río Ventalama, 5 45007 Toledo España",
    "web": "/",
    "genero": "Investigación",
    "puntuacion": "6.4",
    "precio": "€ Desde 10€ por persona",
    "jugadores": "De 2 a 6 jugadores",
    "descripcion": "No disponible",
    "latitud": 39.8581,
    "longitud": -4.0226
  },
  {
    "nombre": "Sherlock se Viste de Negro",
    "ubicacion": "Calle Barcelona, 49 36203 Vigo España",
    "web": "/",
    "genero": "Misterio",
    "puntuacion": "10",
    "precio": "€ Desde 12€ por persona",
    "jugadores": "De 2 a 6 jugadores",
    "descripcion": "Estáis a punto de desvendar los misterios detrás de las reliquias del Apóstol Santiago",
    "latitud": 42.2328,
    "longitud": -8.7226
  },
  {
    "nombre": "Mind Horror",
    "ubicacion": "Calle Arquebisbe Meló, 7 46005 Valencia España",
    "web": "/",
    "genero": "Miedo",
    "puntuacion": "No disponible",
    "precio": "€ Desde 0€ por persona",
    "jugadores": "De 2 a 4 jugadores",
    "descripcion": "Os acabáis de despertar en una fábrica abandonada con muy mala pinta ¿lograréis escapar de allí... enteros?",
    "latitud": 39.4635837,
    "longitud": -0.3713283
  },
  {
    "nombre": "En Busca del Pintxo Perdido",
    "ubicacion": "Calle Herrán, 43 01002 Vitoria España",
    "web": "/",
    "genero": "Misterio",
    "puntuacion": "No disponible",
    "precio": "€ Desde 12€ por persona",
    "jugadores": "De 8 a 8 jugadores",
    "descripcion": "Hall game para grupos de 6 a 12 jugadores que quieran disfrutar de una experiencia diferente y descifrar enigmas",
    "latitud": 42.8516317,
    "longitud": -2.6669899
  },
  {
    "nombre": "007: Nueva Misión",
    "ubicacion": "Calle Ricard Ankerman, 46 07006 Palma de Mallorca España",
    "web": "/",
    "genero": "Acción",
    "puntuacion": "10",
    "precio": "€ Desde 11€ por persona",
    "jugadores": "De 2 a 7 jugadores",
    "descripcion": "¡En La Jungla todo puede pasar, pero solo tendréis 60 minutos para escapar!",
    "latitud": 39.5694,
    "longitud": 2.6502
  },
  {
    "nombre": "Proyecto Éride",
    "ubicacion": "Avenida Granda, 9 14009 Córdoba España",
    "web": "/",
    "genero": "Misterio",
    "puntuacion": "10",
    "precio": "€ Desde 12€ por persona",
    "jugadores": "De 2 a 6 jugadores",
    "descripcion": "Jack 'el pájaro\" ha inventado algo innovador y tendréis que impedir que su invento caiga en manos equivocadas",
    "latitud": 37.8916,
    "longitud": -4.7727
  },
  {
    "nombre": "La Mussara",
    "ubicacion": "Calle Salvador Pagès 4, bajos 43206 Reus España",
    "web": "/",
    "genero": "Misterio",
    "puntuacion": "No disponible",
    "precio": "€ Desde 13€ por persona",
    "jugadores": "De 2 a 6 jugadores",
    "descripcion": "¿Seréis l@s próxim@s sujet@s a formar parte de los experimentos de la AGTC?",
    "latitud": 41.1561,
    "longitud": 1.1069
  },
  {
    "nombre": "Inframundo",
    "ubicacion": "Calle García Noblejas, 3 28660 Boadilla del monte España",
    "web": "/",
    "genero": "Miedo",
    "puntuacion": "10",
    "precio": "€ Desde 19€ por persona",
    "jugadores": "De 2 a 6 jugadores",
    "descripcion": "Este casino está involucrado en una trama criminal llena de corrupción, así que ya sabéis ¡que pierda la banca!",
    "latitud": 40.405,
    "longitud": -3.8783
  },
  {
    "nombre": "Crazy Cruises",
    "ubicacion": "Carrer Manel Quer, 8 17002 Girona España",
    "web": "/",
    "genero": "Aventura",
    "puntuacion": "No disponible",
    "precio": "€ Desde 10€ por persona",
    "jugadores": "De 2 a 6 jugadores",
    "descripcion": "Escape room al aire libre ambientado en la trama de la aclamada serie Juego de Tronos",
    "latitud": 41.9757681,
    "longitud": 2.8175794
  },
  {
    "nombre": "Portus Victoriae",
    "ubicacion": "Calle Isaac Peral, 33 39008 Santander España",
    "web": "/",
    "genero": "Aventura",
    "puntuacion": "No disponible",
    "precio": "€ Desde 17€ por persona",
    "jugadores": "De 2 a 6 jugadores",
    "descripcion": "El posadero del Puerto Barrilete tiene algo que ofrecer a l@s aventurer@s más intrépid@s",
    "latitud": 43.4321545,
    "longitud": -4.0444865
  },
  {
    "nombre": "El Asesino de la Máscara",
    "ubicacion": "Calle Madalen Jauregiberri Ibilbidea, 4 20014 San Sebastián España",
    "web": "/",
    "genero": "Misterio",
    "puntuacion": "9.6",
    "precio": "€ Desde 12€ por persona",
    "jugadores": "De 2 a 4 jugadores",
    "descripcion": "¡Entrad en el mundo fantástico de las lamias y descubrid sus misterios!",
    "latitud": 43.3128,
    "longitud": -1.975
  },
  {
    "nombre": "En Busca del Elixir Perdido",
    "ubicacion": "Calle de la Industria, 1, Local C 11407 Jerez de la Frontera España",
    "web": "/",
    "genero": "Misterio",
    "puntuacion": "10",
    "precio": "€ Desde 10€ por persona",
    "jugadores": "De 2 a 6 jugadores",
    "descripcion": "Antes de poner las manos en la herencia, prepararos para desvendar los misterios",
    "latitud": 0.0,
    "longitud": 0.0
  },
  {
    "nombre": "Misión Némesis",
    "ubicacion": "Calle Victor Serna, 8 29640 Fuengirola España",
    "web": "/",
    "genero": "Sci-fi",
    "puntuacion": "No disponible",
    "precio": "€ Desde 10€ por persona",
    "jugadores": "De 2 a 6 jugadores",
    "descripcion": "No disponible",
    "latitud": 36.5500816,
    "longitud": -4.6170139
  },
  {
    "nombre": "El Jardín",
    "ubicacion": "Avenida Andalucía 27, Local 6 18015 Granada España",
    "web": "/",
    "genero": "Misterio",
    "puntuacion": "10",
    "precio": "€ Desde 0€ por persona",
    "jugadores": "De 2 a 6 jugadores",
    "descripcion": "¡Preparaos para huir con vida del incendio en el centro penitenciario de San Miguel!",
    "latitud": 37.1882,
    "longitud": -3.6067
  },
  {
    "nombre": "Sherlock: Objetivo Moriarty",
    "ubicacion": "Cap Negret, 140 03590 Altea España",
    "web": "/",
    "genero": "Misterio",
    "puntuacion": "No disponible",
    "precio": "€ Desde 14€ por persona",
    "jugadores": "De 2 a 8 jugadores",
    "descripcion": "¿Qué pasará dentro de La Casa Encantada? Vuestro equipo está a punto de conocer la respuesta.",
    "latitud": 38.6076,
    "longitud": -0.042
  },
  {
    "nombre": "Jigsaw",
    "ubicacion": "Calle Macias Picavea, 7 47003 Valladolid España",
    "web": "/",
    "genero": "Miedo",
    "puntuacion": "10",
    "precio": "€ Desde 12€ por persona",
    "jugadores": "De 2 a 7 jugadores",
    "descripcion": "¡El Asesino de la Máscara ataca nuevamente y, esta vez, está en Valladolid!",
    "latitud": 41.6552,
    "longitud": -4.7237
  },
  {
    "nombre": "Amenaza Coreana",
    "ubicacion": "Calle Obispo Salinas, 91 12003 Castellón España",
    "web": "/",
    "genero": "Acción",
    "puntuacion": "No disponible",
    "precio": "€ Desde 13€ por persona",
    "jugadores": "De 5 a 8 jugadores",
    "descripcion": "Desactivad la bomba en la próxima hora y salvad el pueblo de Castellón",
    "latitud": 39.9832546,
    "longitud": -0.0278527
  },
  {
    "nombre": "Invasion Alien",
    "ubicacion": "Calle Montero Ríos, 34 36201 Vigo España",
    "web": "/",
    "genero": "Sci-fi",
    "puntuacion": "No disponible",
    "precio": "€ Desde 10€ por persona",
    "jugadores": "De 2 a 3 jugadores",
    "descripcion": "Estáis a punto de desvendar los misterios detrás de las reliquias del Apóstol Santiago",
    "latitud": 42.2328,
    "longitud": -8.7226
  },
  {
    "nombre": "La entrevista",
    "ubicacion": "Calle Cooperativa 77, Local 1 08338 Mataró España",
    "web": "/",
    "genero": "Investigación",
    "puntuacion": "No disponible",
    "precio": "€ Desde 0€ por persona",
    "jugadores": "De 2 a 7 jugadores",
    "descripcion": "Estáis invitados a una fiesta en el bosque con todos vuestros colegas ¿Qué puede salir mal?",
    "latitud": 41.5,
    "longitud": 2.35
  },
  {
    "nombre": "Escuela de Magia",
    "ubicacion": "Calle Isaac Peral, 33 39008 Santander España",
    "web": "/",
    "genero": "Fantasía",
    "puntuacion": "No disponible",
    "precio": "€ Desde 14€ por persona",
    "jugadores": "De 2 a 8 jugadores",
    "descripcion": "El posadero del Puerto Barrilete tiene algo que ofrecer a l@s aventurer@s más intrépid@s",
    "latitud": 43.4321545,
    "longitud": -4.0444865
  },
  {
    "nombre": "Yucatán: el último templo",
    "ubicacion": "Calle Aureliano Ibarra 6 03009 Alicante España",
    "web": "/",
    "genero": "Aventura",
    "puntuacion": "9.6",
    "precio": "€ Desde 16€ por persona",
    "jugadores": "De 2 a 5 jugadores",
    "descripcion": "¿Qué pasará dentro de La Casa Encantada? Vuestro equipo está a punto de conocer la respuesta.",
    "latitud": 38.3452,
    "longitud": -0.4815
  },
  {
    "nombre": "Expedición Zero",
    "ubicacion": "Calle Santiago de Guayaquil, 7 15702 Santiago de Compostela España",
    "web": "/",
    "genero": "Aventura",
    "puntuacion": "10",
    "precio": "€ Desde 2€ por persona",
    "jugadores": "De 4 a 8 jugadores",
    "descripcion": "Seréis los guardianes del sueño del pequeño Lucas y lo protegeréis de un horrendo payaso",
    "latitud": 42.88052,
    "longitud": -8.54569
  },
  {
    "nombre": "El Método Muridae",
    "ubicacion": "Avenida Buenos Aires, 94 32004 Ourense España",
    "web": "/",
    "genero": "Misterio",
    "puntuacion": "No disponible",
    "precio": "€ Desde 16€ por persona",
    "jugadores": "De 2 a 5 jugadores",
    "descripcion": "Con vuestras varitas en mano, tendréis 60 minutos para resolver un gran misterio",
    "latitud": 42.3367,
    "longitud": -7.8641
  },
  {
    "nombre": "La Guarida",
    "ubicacion": "Calle Esgueva, 12 47003 Valladolid España",
    "web": "/",
    "genero": "Misterio",
    "puntuacion": "10",
    "precio": "€ Desde 13€ por persona",
    "jugadores": "De 2 a 6 jugadores",
    "descripcion": "¡El Asesino de la Máscara ataca nuevamente y, esta vez, está en Valladolid!",
    "latitud": 41.6552,
    "longitud": -4.7237
  },
  {
    "nombre": "Nathael",
    "ubicacion": "​​Calle Cooperativa, 77 08302 Mataró España",
    "web": "/",
    "genero": "Miedo",
    "puntuacion": "No disponible",
    "precio": "€ Desde 25€ por persona",
    "jugadores": "De 2 a 6 jugadores",
    "descripcion": "Estáis invitados a una fiesta en el bosque con todos vuestros colegas ¿Qué puede salir mal?",
    "latitud": 41.5421,
    "longitud": 2.4445
  },
  {
    "nombre": "La Torre de Babel",
    "ubicacion": "Plaza La Moneda, 9 22001 Huesca España",
    "web": "/",
    "genero": "Misterio",
    "puntuacion": "No disponible",
    "precio": "€ Desde 0€ por persona",
    "jugadores": "De 6 a 8 jugadores",
    "descripcion": "¡Invadid este banco nacional y poned las manos en el botín!",
    "latitud": 42.1385835,
    "longitud": -0.406228
  },
  {
    "nombre": "Rabia",
    "ubicacion": "Calle San Antoniño, 22 36002 Pontevedra España",
    "web": "/",
    "genero": "Sci-fi",
    "puntuacion": "6",
    "precio": "€ Desde 14€ por persona",
    "jugadores": "De 2 a 6 jugadores",
    "descripcion": "Una desaparición a los alrededores de la tumba de Ramsés VIII nos está dejando muy intrigad@s...",
    "latitud": 42.431,
    "longitud": -8.6444
  },
  {
    "nombre": "Crazy Family",
    "ubicacion": "Calle Santa Catalina, 1 50001 Zaragoza España",
    "web": "/",
    "genero": "Aventura",
    "puntuacion": "No disponible",
    "precio": "€ Desde 0€ por persona",
    "jugadores": "De 2 a 7 jugadores",
    "descripcion": "¡Entrad en esta aventura en pleno Imperio Romano y luchad por vuestras vidas!",
    "latitud": 41.650926,
    "longitud": -0.878719
  },
  {
    "nombre": "La Mafia",
    "ubicacion": "Calle Alfonso XII, 41 28934 Móstoles España",
    "web": "/",
    "genero": "Investigación",
    "puntuacion": "No disponible",
    "precio": "€ Desde 15€ por persona",
    "jugadores": "De 2 a 6 jugadores",
    "descripcion": "Este casino está involucrado en una trama criminal llena de corrupción, así que ya sabéis ¡que pierda la banca!",
    "latitud": 40.3152014,
    "longitud": -3.8698143
  },
  {
    "nombre": "Narcos",
    "ubicacion": "Calle Bacardi, 32 08902 Hospitalet de Llobregat España",
    "web": "/",
    "genero": "Investigación",
    "puntuacion": "8.8",
    "precio": "€ Desde 24€ por persona",
    "jugadores": "No sabemos todavía el número final de jugadores ¿Pueden cambiarse después?",
    "descripcion": "Infiltraos en la fiesta de fin de año en Nakatomi Plaza y evitad un atentado. ¿Podréis detenerlos a tiempo?",
    "latitud": 41.4301,
    "longitud": 2.1925
  },
  {
    "nombre": "Nootropic",
    "ubicacion": "Calle Ursicino Álvarez, 2 49011 Zamora España",
    "web": "/",
    "genero": "Misterio",
    "puntuacion": "No disponible",
    "precio": "€ Desde 12€ por persona",
    "jugadores": "De 2 a 6 jugadores",
    "descripcion": "Una misión os espera en Escape Room Zamora, así que ¡daros prisa y empezad a investigar!",
    "latitud": 41.5116076,
    "longitud": -5.7385469
  },
  {
    "nombre": "La Maldición de los Balaguer",
    "ubicacion": "Calle Boltaña, 40, (Nave 1) 28022 Madrid España",
    "web": "/",
    "genero": "Miedo",
    "puntuacion": "9.3",
    "precio": "€ Desde 26€ por persona",
    "jugadores": "No sabemos todavía el número final de jugadores ¿Pueden cambiarse después?",
    "descripcion": "¿Sois un Balaguer? Reclamad vuestra parte de la misteriosa herencia, pero mucho cuidado con mentir o lo pagaréis caro",
    "latitud": 40.4165,
    "longitud": -3.7026
  },
  {
    "nombre": "Ley Seca. Contrabando",
    "ubicacion": "Calle Madrid, 15, Frente UC3M 28911 Leganés España",
    "web": "/",
    "genero": "Investigación",
    "puntuacion": "No disponible",
    "precio": "€ Desde 13€ por persona",
    "jugadores": "De 2 a 8 jugadores",
    "descripcion": "Este casino está involucrado en una trama criminal llena de corrupción, así que ya sabéis ¡que pierda la banca!",
    "latitud": 40.3272,
    "longitud": -3.7635
  },
  {
    "nombre": "El Diamante Negro",
    "ubicacion": "Calle Camino Llano, 9 10002 Cáceres España",
    "web": "/",
    "genero": "Aventura",
    "puntuacion": "No disponible",
    "precio": "€ Desde 12€ por persona",
    "jugadores": "De 2 a 6 jugadores",
    "descripcion": "¿Qué puede salir con este maravilloso viaje que ganasteis en un concurso?",
    "latitud": 39.4714182,
    "longitud": -6.3737569
  },
  {
    "nombre": "Al Rescate",
    "ubicacion": "Calle Joan d'Àustria, 42 08225 Terrassa España",
    "web": "/",
    "genero": "Infantil",
    "puntuacion": "No disponible",
    "precio": "€ Desde 9€ por persona",
    "jugadores": "De 2 a 8 jugadores",
    "descripcion": "Estáis invitados a una fiesta en el bosque con todos vuestros colegas ¿Qué puede salir mal?",
    "latitud": 41.5667,
    "longitud": 2.0167
  },
  {
    "nombre": "Sanctum",
    "ubicacion": "Calle Doctor Cadaval, 4 36202 Vigo España",
    "web": "/",
    "genero": "Virtual",
    "puntuacion": "8.8",
    "precio": "€ Desde 16€ por persona",
    "jugadores": "De 2 a 4 jugadores",
    "descripcion": "Estáis a punto de desvendar los misterios detrás de las reliquias del Apóstol Santiago",
    "latitud": 42.2328,
    "longitud": -8.7226
  },
  {
    "nombre": "La Casa Paranormal (Valencia)",
    "ubicacion": "Carrer del Maestro Sosa, 27 46007 Valencia España",
    "web": "/",
    "genero": "Miedo",
    "puntuacion": "10",
    "precio": "€ Desde 11€ por persona",
    "jugadores": "De 2 a 6 jugadores",
    "descripcion": "Os acabáis de despertar en una fábrica abandonada con muy mala pinta ¿lograréis escapar de allí... enteros?",
    "latitud": 39.4698,
    "longitud": -0.3774
  },
  {
    "nombre": "La Leyenda del Castillo",
    "ubicacion": "Calle Fernando Morán, 1 33401 Avilés España",
    "web": "/",
    "genero": "Misterio",
    "puntuacion": "8.4",
    "precio": "€ Desde 12€ por persona",
    "jugadores": "De 2 a 6 jugadores",
    "descripcion": "Lo que parecía un viaje de ensueño está a punto de convertirse en la peor pesadilla de vuestras vidas...",
    "latitud": 43.5547,
    "longitud": -5.9248
  },
  {
    "nombre": "Sacrificio",
    "ubicacion": "Calle Sevilla, 43 11201 Algeciras España",
    "web": "/",
    "genero": "Miedo",
    "puntuacion": "9.6",
    "precio": "€ Desde 12€ por persona",
    "jugadores": "De 2 a 6 jugadores",
    "descripcion": "¡Poneos en la piel de l@s bruj@s y desvendad todos los enigmas mágicos!",
    "latitud": 36.1333,
    "longitud": -5.4505
  },
  {
    "nombre": "Juego de Tronos en Girona",
    "ubicacion": "Calle de Berenguer Carnicer, 3 (punto de inicio del juego) 17001 Girona España",
    "web": "/",
    "genero": "Fantasía",
    "puntuacion": "No disponible",
    "precio": "€ Desde 12€ por persona",
    "jugadores": "De 2 a 6 jugadores",
    "descripcion": "A bordo de un Boing 737, usaréis todas vuestras habilidades y destreza para evitar un desastre",
    "latitud": 41.9831,
    "longitud": 2.8249
  },
  {
    "nombre": "Sin Retorno",
    "ubicacion": "Calle María Diaz de Haro, 11 48920 Portugalete España",
    "web": "/",
    "genero": "Sci-fi",
    "puntuacion": "No disponible",
    "precio": "€ Desde 14€ por persona",
    "jugadores": "De 2 a 5 jugadores",
    "descripcion": "Juego portátil ideal para grupos grandes",
    "latitud": 43.3234335,
    "longitud": -3.019301
  },
  {
    "nombre": "La Cabaña de Hansel y Gretel",
    "ubicacion": "Camino Segurilla, 58 45600 Talavera de la reina España",
    "web": "/",
    "genero": "Aventura",
    "puntuacion": "10",
    "precio": "€ Desde 9€ por persona",
    "jugadores": "De 2 a 8 jugadores",
    "descripcion": "No disponible",
    "latitud": 39.9635,
    "longitud": -4.8308
  },
  {
    "nombre": "El Truco Final",
    "ubicacion": "Calle Monasterio de Fitero, 25-27 31001 Pamplona España",
    "web": "/",
    "genero": "Investigación",
    "puntuacion": "9.6",
    "precio": "€ Desde 14€ por persona",
    "jugadores": "De 2 a 5 jugadores",
    "descripcion": "En los próximos 75 minutos confrontaréis vuestros recuerdos perdidos a través de un tratamiento experimental",
    "latitud": 42.8169,
    "longitud": -1.6432
  },
  {
    "nombre": "Búsqueda del Tesoro",
    "ubicacion": "Calle Duque de Alba, 15 28012 Madrid España",
    "web": "/",
    "genero": "Aventura",
    "puntuacion": "No disponible",
    "precio": "€ Desde 20€ por persona",
    "jugadores": "De 5 a 8 jugadores",
    "descripcion": "Este casino está involucrado en una trama criminal llena de corrupción, así que ya sabéis ¡que pierda la banca!",
    "latitud": 40.4115325,
    "longitud": -3.7067618
  },
  {
    "nombre": "La Máquina del Tiempo",
    "ubicacion": "Calle Joaquín Costa, s/n, CC Los Prados 33001 Oviedo España",
    "web": "/",
    "genero": "Sci-fi",
    "puntuacion": "No disponible",
    "precio": "€ Desde 13€ por persona",
    "jugadores": "De 2 a 8 jugadores",
    "descripcion": "Experiencia policíaca ambientada en los años 20, con una dosis de misterio y un toque sobrenatural",
    "latitud": 43.3603,
    "longitud": -5.8448
  },
  {
    "nombre": "Lost in Time",
    "ubicacion": "Avenida Playa Serena, 36 04740 Roquetas de Mar España",
    "web": "/",
    "genero": "Aventura",
    "puntuacion": "No disponible",
    "precio": "€ Desde 16€ por persona",
    "jugadores": "De 2 a 4 jugadores",
    "descripcion": "Esta aventura os llevará directos al tesoro perdido del faraón. ¡Preparad para la misión!",
    "latitud": 36.7250966,
    "longitud": -2.6289733
  },
  {
    "nombre": "El Hechizo Kids",
    "ubicacion": "Calle Obispo Salinas, 91 12003 Castellón España",
    "web": "/",
    "genero": "Infantil",
    "puntuacion": "No disponible",
    "precio": "€ Desde 13€ por persona",
    "jugadores": "De 4 a 8 jugadores",
    "descripcion": "Desactivad la bomba en la próxima hora y salvad el pueblo de Castellón",
    "latitud": 39.9832546,
    "longitud": -0.0278527
  },
  {
    "nombre": "Andén 88",
    "ubicacion": "Calle Antonio Cano, 69 04009 Almería España",
    "web": "/",
    "genero": "Sci-fi",
    "puntuacion": "10",
    "precio": "€ Desde 15€ por persona",
    "jugadores": "De 2 a 6 jugadores",
    "descripcion": "Embarcaréis en una aventura de ciencia ficción para evitar la extinción de la raza humana",
    "latitud": 36.8381,
    "longitud": -2.4597
  },
  {
    "nombre": "Alkatraz Medieval",
    "ubicacion": "Calle Villaamil, 1 28934 Móstoles España",
    "web": "/",
    "genero": "Aventura",
    "puntuacion": "9.8",
    "precio": "€ Desde 17€ por persona",
    "jugadores": "De 4 a 6 jugadores",
    "descripcion": "Este casino está involucrado en una trama criminal llena de corrupción, así que ya sabéis ¡que pierda la banca!",
    "latitud": 40.3223,
    "longitud": -3.865
  },
  {
    "nombre": "El Secreto de la Pirámide",
    "ubicacion": "Avenida Granada, 15 23003 Jaén España",
    "web": "/",
    "genero": "Aventura",
    "puntuacion": "No disponible",
    "precio": "€ Desde 8€ por persona",
    "jugadores": "De 2 a 6 jugadores",
    "descripcion": "Tras varias guerras, la humanidad está sin recursos naturales y sois la única esperanza de cambiar esta situación",
    "latitud": 37.773727,
    "longitud": -3.7651393
  },
  {
    "nombre": "La Consulta",
    "ubicacion": "Carrer Ripoll, 5 08917 Badalona España",
    "web": "/",
    "genero": "Miedo",
    "puntuacion": "10",
    "precio": "€ Desde 20€ por persona",
    "jugadores": "De 2 a 6 jugadores",
    "descripcion": "Estáis invitados a una fiesta en el bosque con todos vuestros colegas ¿Qué puede salir mal?",
    "latitud": 41.45,
    "longitud": 2.2474
  },
  {
    "nombre": "El Aprendiz de Houdini",
    "ubicacion": "Calle Balmes, 6 08380 Malgrat de Mar España",
    "web": "/",
    "genero": "Misterio",
    "puntuacion": "No disponible",
    "precio": "€ Desde 15€ por persona",
    "jugadores": "De 2 a 7 jugadores",
    "descripcion": "Estáis invitados a una fiesta en el bosque con todos vuestros colegas ¿Qué puede salir mal?",
    "latitud": 41.6466,
    "longitud": 2.7413
  },
  {
    "nombre": "Keops",
    "ubicacion": "Calle Bisbe Messeguer, 22 25003 Lleida España",
    "web": "/",
    "genero": "Aventura",
    "puntuacion": "No disponible",
    "precio": "€ Desde 17€ por persona",
    "jugadores": "De 2 a 6 jugadores",
    "descripcion": "Hall escape en el cual vuestro único objetivo será desvendar un misterioso asesinato",
    "latitud": 41.6167,
    "longitud": 0.6222
  },
  {
    "nombre": "El Secreto de la Muerte",
    "ubicacion": "Calle Herrán, 43 01002 Vitoria España",
    "web": "/",
    "genero": "Misterio",
    "puntuacion": "No disponible",
    "precio": "€ Desde 15€ por persona",
    "jugadores": "De 5 a 8 jugadores",
    "descripcion": "Hall game para grupos de 6 a 12 jugadores que quieran disfrutar de una experiencia diferente y descifrar enigmas",
    "latitud": 42.8516317,
    "longitud": -2.6669899
  },
  {
    "nombre": "Escape Oz",
    "ubicacion": "Calle Ermitagaña, 24 31008 Pamplona España",
    "web": "/",
    "genero": "Fantasía",
    "puntuacion": "10",
    "precio": "€ Desde 10€ por persona",
    "jugadores": "De 3 a 6 jugadores",
    "descripcion": "En los próximos 75 minutos confrontaréis vuestros recuerdos perdidos a través de un tratamiento experimental",
    "latitud": 42.8169,
    "longitud": -1.6432
  },
  {
    "nombre": "La Isla",
    "ubicacion": "Calle Elkano, 15 48901 Barakaldo España",
    "web": "/",
    "genero": "Aventura",
    "puntuacion": "No disponible",
    "precio": "€ Desde 13€ por persona",
    "jugadores": "De 2 a 5 jugadores",
    "descripcion": "¡Armaos de valor para invadir El Búnker y garantizar vuestra victoria en esta guerra!",
    "latitud": 43.2956,
    "longitud": -2.9973
  },
  {
    "nombre": "Wild West",
    "ubicacion": "Calle Príncep de Viana, 53 25004 Lleida España",
    "web": "/",
    "genero": "Aventura",
    "puntuacion": "No disponible",
    "precio": "€ Desde 0€ por persona",
    "jugadores": "De 2 a 7 jugadores",
    "descripcion": "La reina Elisabeth promete pagar una suculenta recompensa a quien le devuelva su diamante robado. ¿Os atrevéis a buscarl",
    "latitud": 41.6167,
    "longitud": 0.6222
  },
  {
    "nombre": "S.O.S. Salacia",
    "ubicacion": "Calle Gutiérrez Herrero, 52, Centro de Empresas La Curtidora, Nave 112 33402 Avilés España",
    "web": "/",
    "genero": "Misterio",
    "puntuacion": "9.6",
    "precio": "€ Desde 0€ por persona",
    "jugadores": "De 2 a 6 jugadores",
    "descripcion": "¿Seréis capaces de desactivar la bomba a tiempo y salvar nuestras vidas?",
    "latitud": 45.5848,
    "longitud": 10.27947
  },
  {
    "nombre": "El Orfanato",
    "ubicacion": "Calle Canal, 54 41006 Sevilla España",
    "web": "/",
    "genero": "Miedo",
    "puntuacion": "9.4",
    "precio": "€ Desde 0€ por persona",
    "jugadores": "De 2 a 6 jugadores",
    "descripcion": "Una cabaña en el medio del bosque os espera para que sus secretos sean revelados...",
    "latitud": 37.3824,
    "longitud": -5.9761
  },
  {
    "nombre": "El Proyecto Halley",
    "ubicacion": "Calle Ávila, 19 28937 Móstoles España",
    "web": "/",
    "genero": "Sci-fi",
    "puntuacion": "No disponible",
    "precio": "€ Desde 0€ por persona",
    "jugadores": "De 8 a 8 jugadores",
    "descripcion": "Este casino está involucrado en una trama criminal llena de corrupción, así que ya sabéis ¡que pierda la banca!",
    "latitud": 40.3253109,
    "longitud": -3.8592814
  },
  {
    "nombre": "La Ouija No Miente",
    "ubicacion": "Avenida Santander, 14 33001 Oviedo España",
    "web": "/",
    "genero": "Misterio",
    "puntuacion": "No disponible",
    "precio": "€ Desde 0€ por persona",
    "jugadores": "De 8 a 8 jugadores",
    "descripcion": "¡Está en vuestras manos detener a una inventora intrépida, en esta carrera contra el tiempo!",
    "latitud": 43.3670015,
    "longitud": -5.8526005
  },
  {
    "nombre": "Cain",
    "ubicacion": "C/ Gorbea 17 01012 Vitoria España",
    "web": "/",
    "genero": "Sci-fi",
    "puntuacion": "No disponible",
    "precio": "€ Desde 20€ por persona",
    "jugadores": "De 2 a 6 jugadores",
    "descripcion": "Hall game para grupos de 6 a 12 jugadores que quieran disfrutar de una experiencia diferente y descifrar enigmas",
    "latitud": 42.8507897,
    "longitud": -2.6798341
  },
  {
    "nombre": "Secuestro",
    "ubicacion": "Call Peri, 15, Número 1 12006 Castellón España",
    "web": "/",
    "genero": "Investigación",
    "puntuacion": "No disponible",
    "precio": "€ Desde 12€ por persona",
    "jugadores": "De 2 a 6 jugadores",
    "descripcion": "¿Seréis capaces de entrar al grupo selecto de los templarios?",
    "latitud": 40.2108,
    "longitud": 0.0272
  },
  {
    "nombre": "El Castillo Encantado",
    "ubicacion": "Calle Vilaamil, 1 28934 Móstoles España",
    "web": "/",
    "genero": "Infantil",
    "puntuacion": "10",
    "precio": "€ Desde 16€ por persona",
    "jugadores": "De 6 a 12 jugadores",
    "descripcion": "Este casino está involucrado en una trama criminal llena de corrupción, así que ya sabéis ¡que pierda la banca!",
    "latitud": 40.3223,
    "longitud": -3.865
  },
  {
    "nombre": "Atrapado en los 80",
    "ubicacion": "Calle Imaginero Castillo Lastrucci, 12 41002 Sevilla España",
    "web": "/",
    "genero": "Aventura",
    "puntuacion": "9.8",
    "precio": "€ Desde 9€ por persona",
    "jugadores": "De 2 a 6 jugadores",
    "descripcion": "Escape room portátil ideal para grupos grandes y empresas",
    "latitud": 37.3824,
    "longitud": -5.9761
  },
  {
    "nombre": "Academia: Operación Anselm Ferrer",
    "ubicacion": "Carrer de Smith, 61 43005 Tarragona España",
    "web": "/",
    "genero": "Sci-fi",
    "puntuacion": "9.2",
    "precio": "€ Desde 10€ por persona",
    "jugadores": "Sí, el juego está apto para personas con movilidad reducida, sin embargo, la sala solo comporta un jugador en silla de ruedas por grupo. Si vuestro grupo cuenta con una persona en estas condiciones, se pide que se avise con antelación.",
    "descripcion": "Preparad para regresar en el tiempo y recuperar el Santo Grial",
    "latitud": 41.1167,
    "longitud": 1.25
  },
  {
    "nombre": "La Consulta del Dr. Anderson",
    "ubicacion": "Calle de Hernando de Acuña, 57 47014 Valladolid España",
    "web": "/",
    "genero": "Sci-fi",
    "puntuacion": "8.8",
    "precio": "€ Desde 12€ por persona",
    "jugadores": "De 2 a 5 jugadores",
    "descripcion": "¿Tendréis el valor de sumergiros en el más allá y descifrar todos sus misterios?",
    "latitud": 41.6552,
    "longitud": -4.7237
  },
  {
    "nombre": "Mari, la Diosa de las Tormentas",
    "ubicacion": "Calle Autonomía, 25 20006 San Sebastián España",
    "web": "/",
    "genero": "Fantasía",
    "puntuacion": "10",
    "precio": "€ Desde 16€ por persona",
    "jugadores": "De 4 a 8 jugadores",
    "descripcion": "Adentraos en este escape room y descifrad un misterioso caso nazi en suelo donostiarra",
    "latitud": 43.3128,
    "longitud": -1.975
  },
  {
    "nombre": "La Tienda Mágica de Juguetes",
    "ubicacion": "-5.6984786 43.5386582 Gijón España",
    "web": "/",
    "genero": "Infantil",
    "puntuacion": "No disponible",
    "precio": "€ Desde 8€ por persona",
    "jugadores": "De 2 a 6 jugadores",
    "descripcion": "¡Ayudad a salvar el mundo de la magia de las fuerzas del mal!",
    "latitud": 43.53573,
    "longitud": -5.66152
  },
  {
    "nombre": "¿Quién mató al comisario?",
    "ubicacion": "Calle Vilaamil, 1 28934 Móstoles España",
    "web": "/",
    "genero": "Investigación",
    "puntuacion": "No disponible",
    "precio": "€ Desde 15€ por persona",
    "jugadores": "De 8 a 8 jugadores",
    "descripcion": "Este casino está involucrado en una trama criminal llena de corrupción, así que ya sabéis ¡que pierda la banca!",
    "latitud": 40.3223,
    "longitud": -3.865
  },
  {
    "nombre": "Catalepsia",
    "ubicacion": "Passatge de Roura, 25 08026 Barcelona España",
    "web": "/",
    "genero": "Miedo",
    "puntuacion": "No disponible",
    "precio": "€ Desde 20€ por persona",
    "jugadores": "De 2 a 2 jugadores",
    "descripcion": "Estáis invitados a una fiesta en el bosque con todos vuestros colegas ¿Qué puede salir mal?",
    "latitud": 41.4132814,
    "longitud": 2.1795137
  },
  {
    "nombre": "The Mystery of Scum Island",
    "ubicacion": "Calle Nueva, 5 45001 Toledo España",
    "web": "/",
    "genero": "Aventura",
    "puntuacion": "8.4",
    "precio": "€ Desde 0€ por persona",
    "jugadores": "De 2 a 5 jugadores",
    "descripcion": "Entrad en el mundo maravilloso de Alice y ayudad a combatir la Reina de Corazones",
    "latitud": 39.8581,
    "longitud": -4.0226
  },
  {
    "nombre": "Caos",
    "ubicacion": "Calle López Gómez, 4, Bajo D 47002 Valladolid España",
    "web": "/",
    "genero": "Misterio",
    "puntuacion": "10",
    "precio": "€ Desde 12€ por persona",
    "jugadores": "De 2 a 8 jugadores",
    "descripcion": "¡El Asesino de la Máscara ataca nuevamente y, esta vez, está en Valladolid!",
    "latitud": 41.6552,
    "longitud": -4.7237
  },
  {
    "nombre": "El Más Allá",
    "ubicacion": "Calle López Gómez, 7 47002 Valladolid España",
    "web": "/",
    "genero": "Miedo",
    "puntuacion": "9.6",
    "precio": "€ Desde 12€ por persona",
    "jugadores": "De 2 a 7 jugadores",
    "descripcion": "¡El Asesino de la Máscara ataca nuevamente y, esta vez, está en Valladolid!",
    "latitud": 41.6552,
    "longitud": -4.7237
  },
  {
    "nombre": "Apophis",
    "ubicacion": "Calle d'Alexander Bell, 72 08224 Terrassa España",
    "web": "/",
    "genero": "Sci-fi",
    "puntuacion": "No disponible",
    "precio": "€ Desde 18€ por persona",
    "jugadores": "De 2 a 7 jugadores",
    "descripcion": "Estáis invitados a una fiesta en el bosque con todos vuestros colegas ¿Qué puede salir mal?",
    "latitud": 41.5667,
    "longitud": 2.0167
  },
  {
    "nombre": "El Secreto del Guiniguada",
    "ubicacion": "Calle Canaleja, 2 28921 Alcorcón España",
    "web": "/",
    "genero": "Sci-fi",
    "puntuacion": "No disponible",
    "precio": "€ Desde 16€ por persona",
    "jugadores": "De 5 a 8 jugadores",
    "descripcion": "Este casino está involucrado en una trama criminal llena de corrupción, así que ya sabéis ¡que pierda la banca!",
    "latitud": 40.3505475,
    "longitud": -3.8257278
  },
  {
    "nombre": "Operación: Código Rojo",
    "ubicacion": "Calle Nicolau Talló, 108 08224 Terrassa España",
    "web": "/",
    "genero": "Acción",
    "puntuacion": "10",
    "precio": "€ Desde 15€ por persona",
    "jugadores": "De 2 a 8 jugadores",
    "descripcion": "Estáis invitados a una fiesta en el bosque con todos vuestros colegas ¿Qué puede salir mal?",
    "latitud": 41.5667,
    "longitud": 2.0167
  },
  {
    "nombre": "Sanatorio",
    "ubicacion": "Carrer Sebastià Gumà, 4 08800 Vilanova España",
    "web": "/",
    "genero": "Sci-fi",
    "puntuacion": "10",
    "precio": "€ Desde 17€ por persona",
    "jugadores": "De 2 a 6 jugadores",
    "descripcion": "Estáis invitados a una fiesta en el bosque con todos vuestros colegas ¿Qué puede salir mal?",
    "latitud": 41.2239,
    "longitud": 1.7251
  },
  {
    "nombre": "Ritual",
    "ubicacion": "Calle Alberto Duce, 15 50018 Zaragoza España",
    "web": "/",
    "genero": "Miedo",
    "puntuacion": "No disponible",
    "precio": "€ Desde 0€ por persona",
    "jugadores": "De 3 a 8 jugadores",
    "descripcion": "¡Entrad en esta aventura en pleno Imperio Romano y luchad por vuestras vidas!",
    "latitud": 41.672406,
    "longitud": -0.886477
  },
  {
    "nombre": "El Sitio",
    "ubicacion": "Calle Maria Jolis y Pellicer, 34 17800 Olot España",
    "web": "/",
    "genero": "Acción",
    "puntuacion": "No disponible",
    "precio": "€ Desde 11€ por persona",
    "jugadores": "De 2 a 8 jugadores",
    "descripcion": "No disponible",
    "latitud": 42.181,
    "longitud": 2.4901
  },
  {
    "nombre": "IN",
    "ubicacion": "Carretera de Collblanc, 205, Local 2 08906 Hospitalet de Llobregat España",
    "web": "/",
    "genero": "Miedo",
    "puntuacion": "9.6",
    "precio": "€ Desde 25€ por persona",
    "jugadores": "No sabemos todavía el número final de jugadores ¿Pueden cambiarse después?",
    "descripcion": "¡Honrad la memoria de John y entrad de cabeza en la Misión SWAT!",
    "latitud": 41.35967,
    "longitud": 2.10028
  },
  {
    "nombre": "El Loco del Callejón",
    "ubicacion": "Calle de Guillem de Castro, 123 46008 Valencia España",
    "web": "/",
    "genero": "Miedo",
    "puntuacion": "9.8",
    "precio": "€ Desde 24€ por persona",
    "jugadores": "No sabemos todavía el número final de jugadores ¿Pueden cambiarse después?",
    "descripcion": "Adéntrate en la antigua Posada DuMont y comprueba la leyenda: cada huésped se suicida a los 90 minutos del registro.",
    "latitud": 39.21848,
    "longitud": -0.37388
  },
  {
    "nombre": "La Medieval",
    "ubicacion": "Calle Bisbe Pere de Puigdorfila, 1 07010 Palma de Mallorca España",
    "web": "/",
    "genero": "Aventura",
    "puntuacion": "8",
    "precio": "€ Desde 14€ por persona",
    "jugadores": "De 2 a 6 jugadores",
    "descripcion": "¡En La Jungla todo puede pasar, pero solo tendréis 60 minutos para escapar!",
    "latitud": 39.5694,
    "longitud": 2.6502
  },
  {
    "nombre": "Willy el Tuerto",
    "ubicacion": "Calle Poeta Folguera, 13 08201 Sabadell España",
    "web": "/",
    "genero": "Aventura",
    "puntuacion": "No disponible",
    "precio": "€ Desde 18€ por persona",
    "jugadores": "De 2 a 6 jugadores",
    "descripcion": "Estáis invitados a una fiesta en el bosque con todos vuestros colegas ¿Qué puede salir mal?",
    "latitud": 41.5433,
    "longitud": 2.1094
  },
  {
    "nombre": "Sleepy",
    "ubicacion": "Avenida Santiago, 55 01003 Vitoria España",
    "web": "/",
    "genero": "Misterio",
    "puntuacion": "No disponible",
    "precio": "€ Desde 16€ por persona",
    "jugadores": "De 1 a 6 jugadores",
    "descripcion": "Hall game para grupos de 6 a 12 jugadores que quieran disfrutar de una experiencia diferente y descifrar enigmas",
    "latitud": 42.8481045,
    "longitud": -2.659144
  },
  {
    "nombre": "Secuestrados",
    "ubicacion": "Calle de València, 16 43840 Salou España",
    "web": "/",
    "genero": "Acción",
    "puntuacion": "No disponible",
    "precio": "€ Desde 16€ por persona",
    "jugadores": "De 2 a 4 jugadores",
    "descripcion": "65 minutos es el tiempo que tenéis para cumplir la misión y escapar con la ayuda de Clara",
    "latitud": 41.0766,
    "longitud": 1.1416
  },
  {
    "nombre": "Maldición de la Vieja Penitenciaría",
    "ubicacion": "Edificio Diseminados, 21 50690 Pedrola España",
    "web": "/",
    "genero": "Misterio",
    "puntuacion": "No disponible",
    "precio": "€ Desde 15€ por persona",
    "jugadores": "De 3 a 7 jugadores",
    "descripcion": "No disponible",
    "latitud": 41.791,
    "longitud": -1.2136
  },
  {
    "nombre": "Departamento Policia Los Mallos",
    "ubicacion": "Avenida Sardiñeira, 36, Bajo 9 15-008 La Coruña España",
    "web": "/",
    "genero": "Investigación",
    "puntuacion": "8.6",
    "precio": "€ Desde 15€ por persona",
    "jugadores": "De 2 a 4 jugadores",
    "descripcion": "",
    "latitud": 43.37135,
    "longitud": -8.396
  },
  {
    "nombre": "Tras el Último Dragón",
    "ubicacion": "Calle Frei Rosendo Salvado, 13, Planta Baja, Local 16 15701 Santiago de Compostela España",
    "web": "/",
    "genero": "Fantasía",
    "puntuacion": "10",
    "precio": "€ Desde 14€ por persona",
    "jugadores": "De 2 a 6 jugadores",
    "descripcion": "Seréis los guardianes del sueño del pequeño Lucas y lo protegeréis de un horrendo payaso",
    "latitud": 0.0,
    "longitud": 0.0
  },
  {
    "nombre": "La Novia de Frankenstein",
    "ubicacion": "Calle Decano Prendes Pando, 23 33208 Gijón España",
    "web": "/",
    "genero": "Sci-fi",
    "puntuacion": "9.3",
    "precio": "€ Desde 10€ por persona",
    "jugadores": "De 2 a 7 jugadores",
    "descripcion": "Una cena temática en la cual tendréis 2 horas para resolver un misterioso crimen",
    "latitud": 43.5357,
    "longitud": -5.6615
  },
  {
    "nombre": "Desembarco del Rey",
    "ubicacion": "Calle Marqués de Santillana, 19 39004 Santander España",
    "web": "/",
    "genero": "Fantasía",
    "puntuacion": "No disponible",
    "precio": "€ Desde 15€ por persona",
    "jugadores": "De 2 a 8 jugadores",
    "descripcion": "El posadero del Puerto Barrilete tiene algo que ofrecer a l@s aventurer@s más intrépid@s",
    "latitud": 43.4645609,
    "longitud": -3.787839
  },
  {
    "nombre": "Prisión",
    "ubicacion": "Calle Azarbe del Papel, 16, Bajo 30007 Murcia España",
    "web": "/",
    "genero": "Aventura",
    "puntuacion": "10",
    "precio": "€ Desde 12€ por persona",
    "jugadores": "De 2 a 6 jugadores",
    "descripcion": "¡Se buscan pequeñ@s escapistas para embarcar en una aventura detectivesca en medio de la  selva!",
    "latitud": 37.987,
    "longitud": -1.13
  },
  {
    "nombre": "El Retrato de Dorian Gray",
    "ubicacion": "Avenida Santander, 14 33001 Oviedo España",
    "web": "/",
    "genero": "Investigación",
    "puntuacion": "7.3",
    "precio": "€ Desde 13€ por persona",
    "jugadores": "De 2 a 6 jugadores",
    "descripcion": "¡Está en vuestras manos detener a una inventora intrépida, en esta carrera contra el tiempo!",
    "latitud": 43.3603,
    "longitud": -5.8448
  },
  {
    "nombre": "Indiana's Adventure",
    "ubicacion": "Calle Santa Catalina, 1 50001 Zaragoza España",
    "web": "/",
    "genero": "Aventura",
    "puntuacion": "No disponible",
    "precio": "€ Desde 18€ por persona",
    "jugadores": "De 2 a 7 jugadores",
    "descripcion": "¡Entrad en esta aventura en pleno Imperio Romano y luchad por vuestras vidas!",
    "latitud": 41.650926,
    "longitud": -0.878719
  },
  {
    "nombre": "En el Corazón de los Cuentos",
    "ubicacion": "Calle Ávila, 19 28937 Móstoles España",
    "web": "/",
    "genero": "Fantasía",
    "puntuacion": "No disponible",
    "precio": "€ Desde 15€ por persona",
    "jugadores": "De 2 a 6 jugadores",
    "descripcion": "Este casino está involucrado en una trama criminal llena de corrupción, así que ya sabéis ¡que pierda la banca!",
    "latitud": 40.3253109,
    "longitud": -3.8592814
  },
  {
    "nombre": "Jack el Inventor",
    "ubicacion": "Calle El Avellano, 6 14006 Córdoba España",
    "web": "/",
    "genero": "Aventura",
    "puntuacion": "No disponible",
    "precio": "€ Desde 7€ por persona",
    "jugadores": "De 2 a 8 jugadores",
    "descripcion": "Entra en Proyecto Éride y desvenda todos sus secretos y misterios",
    "latitud": 37.8964423,
    "longitud": -4.7790599
  },
  {
    "nombre": "El Laberinto de Harry",
    "ubicacion": "Cap Negret, 140 03590 Altea España",
    "web": "/",
    "genero": "Fantasía",
    "puntuacion": "No disponible",
    "precio": "€ Desde 14€ por persona",
    "jugadores": "De 2 a 8 jugadores",
    "descripcion": "¿Qué pasará dentro de La Casa Encantada? Vuestro equipo está a punto de conocer la respuesta.",
    "latitud": 38.6076,
    "longitud": -0.042
  },
  {
    "nombre": "Proyecto X-547",
    "ubicacion": "Avenida Rey Juan Carlos, 92, Oficina 13B, 4ª planta 28916 Leganés España",
    "web": "/",
    "genero": "Misterio",
    "puntuacion": "No disponible",
    "precio": "€ Desde 13€ por persona",
    "jugadores": "De 2 a 6 jugadores",
    "descripcion": "Este casino está involucrado en una trama criminal llena de corrupción, así que ya sabéis ¡que pierda la banca!",
    "latitud": 40.32718,
    "longitud": -3.7635
  },
  {
    "nombre": "El Secreto de la Jungla",
    "ubicacion": "Calle Alejandro González, 3 28028 Madrid España",
    "web": "/",
    "genero": "Aventura",
    "puntuacion": "9.6",
    "precio": "€ Desde 22€ por persona",
    "jugadores": "No sabemos todavía el número final de jugadores ¿Pueden cambiarse después?",
    "descripcion": "Viajad a El Cairo para recuperar las reliquias perdidas de la tercera Dinastía en una aventura increible",
    "latitud": 40.4165,
    "longitud": -3.7026
  },
  {
    "nombre": "Escape of Thrones",
    "ubicacion": "Avenida Reino de León, 12 24006 León España",
    "web": "/",
    "genero": "Fantasía",
    "puntuacion": "10",
    "precio": "€ Desde 20€ por persona",
    "jugadores": "De 2 a 8 jugadores",
    "descripcion": "Disfrutad de la ciudad de León, mientras descifráis un misterioso enigma...",
    "latitud": 42.6,
    "longitud": -5.5703
  },
  {
    "nombre": "Proyecto Higía",
    "ubicacion": "Calle Reyes Católicos, 1 03440 Ibi España",
    "web": "/",
    "genero": "Misterio",
    "puntuacion": "10",
    "precio": "€ Desde 15€ por persona",
    "jugadores": "De 2 a 6 jugadores",
    "descripcion": "¿Qué pasará dentro de La Casa Encantada? Vuestro equipo está a punto de conocer la respuesta.",
    "latitud": 38.6253,
    "longitud": -0.5722
  },
  {
    "nombre": "Abducción Alien",
    "ubicacion": "Calle Bartolomé de Medina, 5 41004 Sevilla España",
    "web": "/",
    "genero": "Sci-fi",
    "puntuacion": "9.2",
    "precio": "€ Desde 10€ por persona",
    "jugadores": "De 2 a 6 jugadores",
    "descripcion": "Una cabaña en el medio del bosque os espera para que sus secretos sean revelados...",
    "latitud": 37.38283,
    "longitud": -5.97317
  },
  {
    "nombre": "Magic Room",
    "ubicacion": "Local 2, La Granja 11205 Algeciras España",
    "web": "/",
    "genero": "Fantasía",
    "puntuacion": "9.6",
    "precio": "€ Desde 12€ por persona",
    "jugadores": "De 2 a 6 jugadores",
    "descripcion": "Está en vuestras manos descifrar los enigmas en Full",
    "latitud": 36.1333,
    "longitud": -5.4505
  },
  {
    "nombre": "The Ultimate Toy Project",
    "ubicacion": "Calle Isaac Peral, 15 39008 Santander España",
    "web": "/",
    "genero": "Misterio",
    "puntuacion": "No disponible",
    "precio": "€ Desde 16€ por persona",
    "jugadores": "De 2 a 6 jugadores",
    "descripcion": "El posadero del Puerto Barrilete tiene algo que ofrecer a l@s aventurer@s más intrépid@s",
    "latitud": 43.4312504,
    "longitud": -4.0444759
  },
  {
    "nombre": "Máscara",
    "ubicacion": "xxx 000 Burgos España",
    "web": "/",
    "genero": "Investigación",
    "puntuacion": "No disponible",
    "precio": "€ Desde 12€ por persona",
    "jugadores": "De 2 a 4 jugadores",
    "descripcion": "No disponible",
    "latitud": 42.35022,
    "longitud": -3.67527
  },
  {
    "nombre": "El Enigma de Goya",
    "ubicacion": "Calle Moratines, 18 28005 Madrid España",
    "web": "/",
    "genero": "Aventura",
    "puntuacion": "10",
    "precio": "€ Desde 17€ por persona",
    "jugadores": "De 2 a 12 jugadores",
    "descripcion": "Este casino está involucrado en una trama criminal llena de corrupción, así que ya sabéis ¡que pierda la banca!",
    "latitud": 40.4165,
    "longitud": -3.7026
  },
  {
    "nombre": "La Vida Nuclear",
    "ubicacion": "Calle Gorbea, 17 01012 Vitoria España",
    "web": "/",
    "genero": "Sci-fi",
    "puntuacion": "9.3",
    "precio": "€ Desde 17€ por persona",
    "jugadores": "De 2 a 6 jugadores",
    "descripcion": "Hall game para grupos de 6 a 12 jugadores que quieran disfrutar de una experiencia diferente y descifrar enigmas",
    "latitud": 42.85,
    "longitud": -2.6727
  },
  {
    "nombre": "La Celda",
    "ubicacion": "Calle Senador Castillo Olivares, 39 35006 Gran Canaria España",
    "web": "/",
    "genero": "Aventura",
    "puntuacion": "No disponible",
    "precio": "€ Desde 14€ por persona",
    "jugadores": "De 2 a 4 jugadores",
    "descripcion": "Un poderoso collar, perdido durante siglos, está a punto de ser reencontrado…",
    "latitud": 28.111021,
    "longitud": -15.4220228
  },
  {
    "nombre": "Chernobyl",
    "ubicacion": "Calle Cisne, 39 03006 Alicante España",
    "web": "/",
    "genero": "Investigación",
    "puntuacion": "9.3",
    "precio": "€ Desde 16€ por persona",
    "jugadores": "No sabemos todavía el número final de jugadores ¿Pueden cambiarse después?",
    "descripcion": "¿Qué pasará dentro de La Casa Encantada? Vuestro equipo está a punto de conocer la respuesta.",
    "latitud": 38.3452,
    "longitud": -0.4815
  },
  {
    "nombre": "Ascension Project: ALIK",
    "ubicacion": "Calle Virgen de Robledo, 6, Local Derecho 41011 Sevilla España",
    "web": "/",
    "genero": "Sci-fi",
    "puntuacion": "9.6",
    "precio": "€ Desde 15€ por persona",
    "jugadores": "De 2 a 6 jugadores",
    "descripcion": "¡Bienvenidos a la última presentación de este legendario circo!",
    "latitud": 37.38283,
    "longitud": -5.97317
  },
  {
    "nombre": "Un Trabajo Sencillo",
    "ubicacion": "Calle Federico Vial, 3 39008 Santander España",
    "web": "/",
    "genero": "Misterio",
    "puntuacion": "10",
    "precio": "€ Desde 19€ por persona",
    "jugadores": "De 2 a 6 jugadores",
    "descripcion": "Algo ha salido mal en un proyecto en el campo lúdico y solo vosotr@s podéis desvendar sus misterios",
    "latitud": 43.4647,
    "longitud": -3.8044
  },
  {
    "nombre": "Pirates Truck",
    "ubicacion": "Calle Hogar Propio, 7 48901 Barakaldo España",
    "web": "/",
    "genero": "Acción",
    "puntuacion": "No disponible",
    "precio": "€ Desde 0€ por persona",
    "jugadores": "De 2 a 5 jugadores",
    "descripcion": "¡Armaos de valor para invadir El Búnker y garantizar vuestra victoria en esta guerra!",
    "latitud": 43.2987589,
    "longitud": -2.9875257
  },
  {
    "nombre": "Pesadillas II",
    "ubicacion": "C. Prol. Ronda Santo Domingo, 7, 03300 Orihuela España",
    "web": "/",
    "genero": "Miedo",
    "puntuacion": "10",
    "precio": "€ Desde 20€ por persona",
    "jugadores": "No sabemos todavía el número final de jugadores ¿Pueden cambiarse después?",
    "descripcion": "No disponible",
    "latitud": 38.08483,
    "longitud": -0.94401
  },
  {
    "nombre": "La Leyenda del Castillo",
    "ubicacion": "Calle Jacinto Benavente, 10 28902 Getafe España",
    "web": "/",
    "genero": "Misterio",
    "puntuacion": "No disponible",
    "precio": "€ Desde 15€ por persona",
    "jugadores": "De 2 a 6 jugadores",
    "descripcion": "Este casino está involucrado en una trama criminal llena de corrupción, así que ya sabéis ¡que pierda la banca!",
    "latitud": 40.3112645,
    "longitud": -3.7319094
  },
  {
    "nombre": "9º Pasaje",
    "ubicacion": "Estrada do Vilar, 73 36214 Vigo España",
    "web": "/",
    "genero": "Misterio",
    "puntuacion": "9.4",
    "precio": "€ Desde 12€ por persona",
    "jugadores": "De 2 a 6 jugadores",
    "descripcion": "Juego virtual de acción diseñado para hasta 4 jugadores",
    "latitud": 42.2328,
    "longitud": -8.7226
  },
  {
    "nombre": "El Baile de las Sirenas",
    "ubicacion": "Calle Pi i Margall, 57 17200 Palafrugell España",
    "web": "/",
    "genero": "Fantasía",
    "puntuacion": "9.6",
    "precio": "€ Desde 15€ por persona",
    "jugadores": "De 2 a 6 jugadores",
    "descripcion": "¡La noche en Xarai será inolvidable! ¿Preparaos!",
    "latitud": 41.9174,
    "longitud": 3.1631
  },
  {
    "nombre": "La Cita Médica",
    "ubicacion": "Calle Cristo de la Sed, 101 41005 Sevilla España",
    "web": "/",
    "genero": "Misterio",
    "puntuacion": "No disponible",
    "precio": "€ Desde 10€ por persona",
    "jugadores": "De 2 a 6 jugadores",
    "descripcion": "Una cabaña en el medio del bosque os espera para que sus secretos sean revelados...",
    "latitud": 37.3832714,
    "longitud": -5.9693703
  },
  {
    "nombre": "La Purga",
    "ubicacion": "Avenida d'Amèrica, 14 08304 Mataró España",
    "web": "/",
    "genero": "Misterio",
    "puntuacion": "No disponible",
    "precio": "€ Desde 22€ por persona",
    "jugadores": "De 2 a 7 jugadores",
    "descripcion": "Estáis invitados a una fiesta en el bosque con todos vuestros colegas ¿Qué puede salir mal?",
    "latitud": 41.5421,
    "longitud": 2.4445
  },
  {
    "nombre": "Puzzle: El Juego",
    "ubicacion": "Calle Basotxiki, 32 20015 San Sebastián España",
    "web": "/",
    "genero": "Miedo",
    "puntuacion": "No disponible",
    "precio": "€ Desde 15€ por persona",
    "jugadores": "De 2 a 5 jugadores",
    "descripcion": "¡Entrad en el mundo fantástico de las lamias y descubrid sus misterios!",
    "latitud": 43.3128,
    "longitud": -1.975
  },
  {
    "nombre": "El Hechizo",
    "ubicacion": "Calle Cerdá, 67 03009 Alicante España",
    "web": "/",
    "genero": "Infantil",
    "puntuacion": "10",
    "precio": "€ Desde 10€ por persona",
    "jugadores": "De 5 a 8 jugadores",
    "descripcion": "¿Qué pasará dentro de La Casa Encantada? Vuestro equipo está a punto de conocer la respuesta.",
    "latitud": 38.3452,
    "longitud": -0.4815
  },
  {
    "nombre": "La Casita de Chocolate",
    "ubicacion": "Calle Fernando Chueca Goitia, 52 28051 Madrid España",
    "web": "/",
    "genero": "Aventura",
    "puntuacion": "10",
    "precio": "€ Desde 18€ por persona",
    "jugadores": "No sabemos todavía el número final de jugadores ¿Pueden cambiarse después?",
    "descripcion": "¿Os atrevéis a entrar en el misterioso Botes Motel?",
    "latitud": 40.4165,
    "longitud": -3.7026
  },
  {
    "nombre": "Pequeños Detectives",
    "ubicacion": "Calle Paz, 6 18002 Granada España",
    "web": "/",
    "genero": "Investigación",
    "puntuacion": "9.6",
    "precio": "€ Desde 10€ por persona",
    "jugadores": "De 2 a 6 jugadores",
    "descripcion": "¡Preparaos para huir con vida del incendio en el centro penitenciario de San Miguel!",
    "latitud": 37.1882,
    "longitud": -3.6067
  },
  {
    "nombre": "Plan Perfecto",
    "ubicacion": "Carrer de la Providència, 66 0880 Vilanova España",
    "web": "/",
    "genero": "Misterio",
    "puntuacion": "10",
    "precio": "€ Desde 14€ por persona",
    "jugadores": "De 2 a 6 jugadores",
    "descripcion": "Estáis invitados a una fiesta en el bosque con todos vuestros colegas ¿Qué puede salir mal?",
    "latitud": 41.22392,
    "longitud": 1.72511
  },
  {
    "nombre": "Loquorium",
    "ubicacion": "Calle Guzmán el Bueno, 11 34002 Palencia España",
    "web": "/",
    "genero": "Misterio",
    "puntuacion": "No disponible",
    "precio": "€ Desde 14€ por persona",
    "jugadores": "De 2 a 5 jugadores",
    "descripcion": "Un asesinato ocurrido a más de 100 años vuelve a amedontrar la ciudad de Palencia...",
    "latitud": 42.0043146,
    "longitud": -4.525804
  },
  {
    "nombre": "Tomb Hunter: La Leyenda de Akasha",
    "ubicacion": "Carrer Baró, 17 08921 Santa Coloma de Gramenet España",
    "web": "/",
    "genero": "Misterio",
    "puntuacion": "6",
    "precio": "€ Desde 17€ por persona",
    "jugadores": "De 2 a 6 jugadores",
    "descripcion": "Estáis invitados a una fiesta en el bosque con todos vuestros colegas ¿Qué puede salir mal?",
    "latitud": 41.4515,
    "longitud": 2.2081
  },
  {
    "nombre": "Pirates Truck",
    "ubicacion": "Calle Hogar Propio, 7 48901 Barakaldo España",
    "web": "/",
    "genero": "Acción",
    "puntuacion": "No disponible",
    "precio": "€ Desde 0€ por persona",
    "jugadores": "De 2 a 5 jugadores",
    "descripcion": "¡Armaos de valor para invadir El Búnker y garantizar vuestra victoria en esta guerra!",
    "latitud": 43.2987589,
    "longitud": -2.9875257
  },
  {
    "nombre": "La Gran Final",
    "ubicacion": "Plaza Celestino María del Arenal, 2 48015 Bilbao España",
    "web": "/",
    "genero": "Aventura",
    "puntuacion": "10",
    "precio": "€ Desde 0€ por persona",
    "jugadores": "De 3 a 8 jugadores",
    "descripcion": "Al más puro estilo Indiana Jones, buscad en este templo la Máscara de Jade y escapad de la maldición!",
    "latitud": 43.2627,
    "longitud": -2.9253
  },
  {
    "nombre": "La Maldición de Amy Rosse",
    "ubicacion": "Avenida Quitapesares, 31, Nave 4 28670 Villaviciosa de Odón España",
    "web": "/",
    "genero": "Misterio",
    "puntuacion": "10",
    "precio": "€ Desde 15€ por persona",
    "jugadores": "De 2 a 8 jugadores",
    "descripcion": "Este casino está involucrado en una trama criminal llena de corrupción, así que ya sabéis ¡que pierda la banca!",
    "latitud": 40.35692,
    "longitud": -3.90011
  },
  {
    "nombre": "Golden Silence",
    "ubicacion": "Calle d'Anselm Clavé, 28 08291 Ripollet España",
    "web": "/",
    "genero": "Misterio",
    "puntuacion": "No disponible",
    "precio": "€ Desde 18€ por persona",
    "jugadores": "De 2 a 6 jugadores",
    "descripcion": "Estáis invitados a una fiesta en el bosque con todos vuestros colegas ¿Qué puede salir mal?",
    "latitud": 41.4969,
    "longitud": 2.1574
  },
  {
    "nombre": "El Enigma de Goya",
    "ubicacion": "Calle Mallén, 8 41018 Sevilla España",
    "web": "/",
    "genero": "Misterio",
    "puntuacion": "No disponible",
    "precio": "€ Desde 12€ por persona",
    "jugadores": "De 2 a 5 jugadores",
    "descripcion": "Una cabaña en el medio del bosque os espera para que sus secretos sean revelados...",
    "latitud": 37.3876113,
    "longitud": -5.97418
  },
  {
    "nombre": "Prisioneros de Alkaban",
    "ubicacion": "Carrer de Trafalgar, 17 08010 Barcelona España",
    "web": "/",
    "genero": "Fantasía",
    "puntuacion": "8.7",
    "precio": "€ Desde 25€ por persona",
    "jugadores": "No sabemos todavía el número final de jugadores ¿Pueden cambiarse después?",
    "descripcion": "Experiencia futurista hiperrealista, que exigirá vuestras capacidades intelectuales y emocionales para poder escapar.",
    "latitud": 41.3888,
    "longitud": 2.159
  },
  {
    "nombre": "Distopía",
    "ubicacion": "Avenida Joaquín Costa, 16 06001 Badajoz España",
    "web": "/",
    "genero": "Sci-fi",
    "puntuacion": "10",
    "precio": "€ Desde 10€ por persona",
    "jugadores": "De 2 a 6 jugadores",
    "descripcion": "Preparaos para huir en los próximos 60 minutos",
    "latitud": 38.8779,
    "longitud": -6.9706
  },
  {
    "nombre": "Call or Die",
    "ubicacion": "Calle Arbizu, 17 31014 Pamplona España",
    "web": "/",
    "genero": "Investigación",
    "puntuacion": "8.8",
    "precio": "€ Desde 21€ por persona",
    "jugadores": "De 3 a 4 jugadores",
    "descripcion": "En los próximos 75 minutos confrontaréis vuestros recuerdos perdidos a través de un tratamiento experimental",
    "latitud": 42.8169,
    "longitud": -1.6432
  },
  {
    "nombre": "DÄMON",
    "ubicacion": "Calle Madalen Jauregiberri Ibilbidea, 4 20014 San Sebastián España",
    "web": "/",
    "genero": "Misterio",
    "puntuacion": "9.6",
    "precio": "€ Desde 15€ por persona",
    "jugadores": "De 2 a 7 jugadores",
    "descripcion": "¡Entrad en el mundo fantástico de las lamias y descubrid sus misterios!",
    "latitud": 43.3128,
    "longitud": -1.975
  },
  {
    "nombre": "Inframundo",
    "ubicacion": "Calle Monasterio de Samos, 33 50013 Zaragoza España",
    "web": "/",
    "genero": "Miedo",
    "puntuacion": "No disponible",
    "precio": "€ Desde 15€ por persona",
    "jugadores": "De 2 a 6 jugadores",
    "descripcion": "¡Entrad en esta aventura en pleno Imperio Romano y luchad por vuestras vidas!",
    "latitud": 41.644915,
    "longitud": -0.8713616
  },
  {
    "nombre": "La Torre de Babel",
    "ubicacion": "Cap Negret, 140 03590 Altea España",
    "web": "/",
    "genero": "Aventura",
    "puntuacion": "No disponible",
    "precio": "€ Desde 14€ por persona",
    "jugadores": "De 6 a 8 jugadores",
    "descripcion": "¿Qué pasará dentro de La Casa Encantada? Vuestro equipo está a punto de conocer la respuesta.",
    "latitud": 38.6076,
    "longitud": -0.042
  },
  {
    "nombre": "4º Elemento",
    "ubicacion": "Estrada do Vilar, 73 36214 Vigo España",
    "web": "/",
    "genero": "Misterio",
    "puntuacion": "9.7",
    "precio": "€ Desde 12€ por persona",
    "jugadores": "De 2 a 6 jugadores",
    "descripcion": "Juego virtual de acción diseñado para hasta 4 jugadores",
    "latitud": 42.2328,
    "longitud": -8.7226
  },
  {
    "nombre": "Yucatán: el último templo",
    "ubicacion": "Calle Santiago de Guayaquil, 7 15702 Santiago de Compostela España",
    "web": "/",
    "genero": "Aventura",
    "puntuacion": "10",
    "precio": "€ Desde 16€ por persona",
    "jugadores": "De 2 a 5 jugadores",
    "descripcion": "Seréis los guardianes del sueño del pequeño Lucas y lo protegeréis de un horrendo payaso",
    "latitud": 42.88052,
    "longitud": -8.54569
  },
  {
    "nombre": "Robo en el Museo",
    "ubicacion": "Calle Profesor Tercedor Díaz, 2 18003 Granada España",
    "web": "/",
    "genero": "Investigación",
    "puntuacion": "10",
    "precio": "€ Desde 15€ por persona",
    "jugadores": "De 2 a 6 jugadores",
    "descripcion": "¡Preparaos para huir con vida del incendio en el centro penitenciario de San Miguel!",
    "latitud": 37.1882,
    "longitud": -3.6067
  },
  {
    "nombre": "Viaje a lo Desconocido",
    "ubicacion": "Calle Ibarrekolanda, 36 48015 Bilbao España",
    "web": "/",
    "genero": "Sci-fi",
    "puntuacion": "No disponible",
    "precio": "€ Desde 13€ por persona",
    "jugadores": "De 2 a 7 jugadores",
    "descripcion": "Al más puro estilo Indiana Jones, buscad en este templo la Máscara de Jade y escapad de la maldición!",
    "latitud": 43.2747826,
    "longitud": -2.9567484
  },
  {
    "nombre": "Operación Corleone",
    "ubicacion": "Calle Canónigo Manuel Lorenzo Penalva, 5, Local 3 0313 Alicante España",
    "web": "/",
    "genero": "Investigación",
    "puntuacion": "8.5",
    "precio": "€ Desde 13€ por persona",
    "jugadores": "No sabemos todavía el número final de jugadores ¿Pueden cambiarse después?",
    "descripcion": "Ahora les toca a los mas pequeños averiguar que está ocurriendo en la comisaría del pueblo",
    "latitud": 38.34517,
    "longitud": -0.48149
  },
  {
    "nombre": "Pasaje Número 9",
    "ubicacion": "Calle Capitán Gaspar Ortiz, 145 03204 Elche España",
    "web": "/",
    "genero": "Misterio",
    "puntuacion": "No disponible",
    "precio": "€ Desde 12€ por persona",
    "jugadores": "De 2 a 6 jugadores",
    "descripcion": "¿Qué pasará dentro de La Casa Encantada? Vuestro equipo está a punto de conocer la respuesta.",
    "latitud": 38.2622,
    "longitud": -0.7011
  },
  {
    "nombre": "Robo en el Museo",
    "ubicacion": "Calle Profesor Tercedor Díaz, 2 18003 Granada España",
    "web": "/",
    "genero": "Investigación",
    "puntuacion": "10",
    "precio": "€ Desde 15€ por persona",
    "jugadores": "De 2 a 6 jugadores",
    "descripcion": "¡Preparaos para huir con vida del incendio en el centro penitenciario de San Miguel!",
    "latitud": 37.1882,
    "longitud": -3.6067
  },
  {
    "nombre": "El Asesino de la Red",
    "ubicacion": "Calle Senado, 4 26001 Logroño España",
    "web": "/",
    "genero": "Misterio",
    "puntuacion": "8.4",
    "precio": "€ Desde 12€ por persona",
    "jugadores": "De 2 a 5 jugadores",
    "descripcion": "Entrad al museo y descifrad el misterioso robo de las obras de arte",
    "latitud": 42.4667,
    "longitud": -2.45
  },
  {
    "nombre": "La Biblioteca",
    "ubicacion": "Calle Senador Castillo Olivares, 39 35006 Gran Canaria España",
    "web": "/",
    "genero": "Investigación",
    "puntuacion": "No disponible",
    "precio": "€ Desde 12€ por persona",
    "jugadores": "De 2 a 6 jugadores",
    "descripcion": "Un poderoso collar, perdido durante siglos, está a punto de ser reencontrado…",
    "latitud": 28.111021,
    "longitud": -15.4220228
  },
  {
    "nombre": "Ambar La Visita",
    "ubicacion": "Paseo Echegaray y Caballero, 148 50001 Zaragoza España",
    "web": "/",
    "genero": "Misterio",
    "puntuacion": "10",
    "precio": "€ Desde 16€ por persona",
    "jugadores": "De 4 a 5 jugadores",
    "descripcion": "Escape room portátil en el cual sumergiréis en los misterios del barco más famoso de todos los tiempos",
    "latitud": 41.6561,
    "longitud": -0.8773
  },
  {
    "nombre": "Sleepy Hollow",
    "ubicacion": "Calle Doctor Cadaval, 4 36202 Vigo España",
    "web": "/",
    "genero": "Virtual",
    "puntuacion": "8.8",
    "precio": "€ Desde 16€ por persona",
    "jugadores": "De 2 a 4 jugadores",
    "descripcion": "Estáis a punto de desvendar los misterios detrás de las reliquias del Apóstol Santiago",
    "latitud": 42.2328,
    "longitud": -8.7226
  },
  {
    "nombre": "The Red Button",
    "ubicacion": "Avenida Playa Serena, 36 04740 Roquetas de Mar España",
    "web": "/",
    "genero": "Misterio",
    "puntuacion": "No disponible",
    "precio": "€ Desde 16€ por persona",
    "jugadores": "De 2 a 4 jugadores",
    "descripcion": "Esta aventura os llevará directos al tesoro perdido del faraón. ¡Preparad para la misión!",
    "latitud": 36.7250966,
    "longitud": -2.6289733
  },
  {
    "nombre": "El Despacho del Detective Torre Páez",
    "ubicacion": "Calle Reyes Catolicos, 2, Entresuelo izquierdo 03600 Elda España",
    "web": "/",
    "genero": "Misterio",
    "puntuacion": "9.6",
    "precio": "€ Desde 10€ por persona",
    "jugadores": "De 2 a 5 jugadores",
    "descripcion": "¿Qué pasará dentro de La Casa Encantada? Vuestro equipo está a punto de conocer la respuesta.",
    "latitud": 38.4033,
    "longitud": -0.7838
  },
  {
    "nombre": "Willy Wonka",
    "ubicacion": "Calle Hogar Propio, 7 48901 Barakaldo España",
    "web": "/",
    "genero": "Fantasía",
    "puntuacion": "No disponible",
    "precio": "€ Desde 13€ por persona",
    "jugadores": "De 2 a 5 jugadores",
    "descripcion": "¡Armaos de valor para invadir El Búnker y garantizar vuestra victoria en esta guerra!",
    "latitud": 43.2987589,
    "longitud": -2.9875257
  },
  {
    "nombre": "Film Escape Room",
    "ubicacion": "Calle Hortes, 21 17600 Figueres España",
    "web": "/",
    "genero": "Investigación",
    "puntuacion": "No disponible",
    "precio": "€ Desde 12€ por persona",
    "jugadores": "De 2 a 5 jugadores",
    "descripcion": "¿Quién es el responsable de este crimen? ¡Entrad y descubrid!",
    "latitud": 42.2664,
    "longitud": 2.9616
  },
  {
    "nombre": "El Secreto del Vino",
    "ubicacion": "Carrer d'En Vilanova, 8 07002 Palma de Mallorca España",
    "web": "/",
    "genero": "Misterio",
    "puntuacion": "10",
    "precio": "€ Desde 14€ por persona",
    "jugadores": "De 3 a 6 jugadores",
    "descripcion": "¡Entrad en el mundo de 007 y desactivad la bomba antes que la isla sea destruida!",
    "latitud": 39.5694,
    "longitud": 2.6502
  },
  {
    "nombre": "Moorder",
    "ubicacion": "Calle Príncep de Viana, 53 25004 Lleida España",
    "web": "/",
    "genero": "Investigación",
    "puntuacion": "No disponible",
    "precio": "€ Desde 16€ por persona",
    "jugadores": "De 6 a 6 jugadores",
    "descripcion": "La reina Elisabeth promete pagar una suculenta recompensa a quien le devuelva su diamante robado. ¿Os atrevéis a buscarl",
    "latitud": 41.6167,
    "longitud": 0.6222
  },
  {
    "nombre": "Street Escape Palafrugell",
    "ubicacion": "3.16574 41.9141351 Palafrugell España",
    "web": "/",
    "genero": "Investigación",
    "puntuacion": "6.4",
    "precio": "€ Desde 0€ por persona",
    "jugadores": "De 2 a 6 jugadores",
    "descripcion": "Reunid vuestro mejor equipo para deshacer el hechizo de la sirena",
    "latitud": 41.91738,
    "longitud": 3.1631
  },
  {
    "nombre": "La Casa de la Bruja",
    "ubicacion": "Calle Cervantes, 15 09002 Burgos España",
    "web": "/",
    "genero": "Fantasía",
    "puntuacion": "10",
    "precio": "€ Desde 12€ por persona",
    "jugadores": "De 2 a 8 jugadores",
    "descripcion": "¿Preparad@s para escapar de este almacén en los próximos 60 minutos?",
    "latitud": 42.3502,
    "longitud": -3.6753
  },
  {
    "nombre": "The Experiment",
    "ubicacion": "Avenida Playa Serena, 36 04740 Roquetas de Mar España",
    "web": "/",
    "genero": "Misterio",
    "puntuacion": "No disponible",
    "precio": "€ Desde 16€ por persona",
    "jugadores": "De 2 a 4 jugadores",
    "descripcion": "Esta aventura os llevará directos al tesoro perdido del faraón. ¡Preparad para la misión!",
    "latitud": 36.7250966,
    "longitud": -2.6289733
  },
  {
    "nombre": "Exploradores en el Cairo (Kids)",
    "ubicacion": "Avenida Sabino Arana, 47 48013 Bilbao España",
    "web": "/",
    "genero": "Aventura",
    "puntuacion": "10",
    "precio": "€ Desde 15€ por persona",
    "jugadores": "De 4 a 8 jugadores",
    "descripcion": "Al más puro estilo Indiana Jones, buscad en este templo la Máscara de Jade y escapad de la maldición!",
    "latitud": 43.2627,
    "longitud": -2.9253
  },
  {
    "nombre": "El Secreto del Faraón",
    "ubicacion": "Calle Santa Teresa de Jesús, 12, Bajo 33208 Gijón España",
    "web": "/",
    "genero": "Misterio",
    "puntuacion": "No disponible",
    "precio": "€ Desde 0€ por persona",
    "jugadores": "De 2 a 8 jugadores",
    "descripcion": "Una cena temática en la cual tendréis 2 horas para resolver un misterioso crimen",
    "latitud": 43.5353426,
    "longitud": -5.6663615
  },
  {
    "nombre": "Soulbound",
    "ubicacion": "Calle Esteve Albert, 73 08304 Mataró España",
    "web": "/",
    "genero": "Miedo",
    "puntuacion": "No disponible",
    "precio": "€ Desde 20€ por persona",
    "jugadores": "De 2 a 6 jugadores",
    "descripcion": "Estáis invitados a una fiesta en el bosque con todos vuestros colegas ¿Qué puede salir mal?",
    "latitud": 41.5421,
    "longitud": 2.4445
  },
  {
    "nombre": "La Comisaría",
    "ubicacion": "Calle Cisne, 39 03006 Alicante España",
    "web": "/",
    "genero": "Investigación",
    "puntuacion": "9.1",
    "precio": "€ Desde 15€ por persona",
    "jugadores": "No sabemos todavía el número final de jugadores ¿Pueden cambiarse después?",
    "descripcion": "¿Qué pasará dentro de La Casa Encantada? Vuestro equipo está a punto de conocer la respuesta.",
    "latitud": 38.3452,
    "longitud": -0.4815
  },
  {
    "nombre": "El Doctor Frankenstein",
    "ubicacion": "Calle Conrado del Campo, 48 03204 Elche España",
    "web": "/",
    "genero": "Sci-fi",
    "puntuacion": "No disponible",
    "precio": "€ Desde 15€ por persona",
    "jugadores": "De 2 a 6 jugadores",
    "descripcion": "¿Qué pasará dentro de La Casa Encantada? Vuestro equipo está a punto de conocer la respuesta.",
    "latitud": 38.2622,
    "longitud": -0.7011
  },
  {
    "nombre": "Piso Franco: Fruehauf",
    "ubicacion": "Calle Gütenberg, 6 37007 Salamanca España",
    "web": "/",
    "genero": "Investigación",
    "puntuacion": "No disponible",
    "precio": "€ Desde 9€ por persona",
    "jugadores": "De 2 a 6 jugadores",
    "descripcion": "El misterioso Legado de Laozi está a punto de ser desvelado",
    "latitud": 40.9724092,
    "longitud": -5.6689133
  },
  {
    "nombre": "San Sebastian Centre",
    "ubicacion": "De Bilbao Plaza 20005 San Sebastián España",
    "web": "/",
    "genero": "Aventura",
    "puntuacion": "No disponible",
    "precio": "€ Desde 5€ por persona",
    "jugadores": "De 1 a 5 jugadores",
    "descripcion": "¡Entrad en el mundo fantástico de las lamias y descubrid sus misterios!",
    "latitud": 43.317338,
    "longitud": -1.9800682
  },
  {
    "nombre": "Misión Gaudí",
    "ubicacion": "Passatge del Patriarca, 4-10, local D 08002 Barcelona España",
    "web": "/",
    "genero": "Aventura",
    "puntuacion": "9.5",
    "precio": "Los niños de 13 a 15 años, sin adultos, deberán ir acompañados de uno de los Game Másters, por un precio adicional de 25€.",
    "jugadores": "No sabemos todavía el número final de jugadores ¿Pueden cambiarse después?",
    "descripcion": "Tendréis que luchar contra la resaca para acordaros de lo que pasó anoche y huir antes que llegue la policía",
    "latitud": 41.66667,
    "longitud": 2.0
  },
  {
    "nombre": "La Reliquia Maldita",
    "ubicacion": "Calle Paco Natera, 1, Bajo 1 14014 Córdoba España",
    "web": "/",
    "genero": "Fantasía",
    "puntuacion": "10",
    "precio": "€ Desde 10€ por persona",
    "jugadores": "De 2 a 6 jugadores",
    "descripcion": "Entra en Proyecto Éride y desvenda todos sus secretos y misterios",
    "latitud": 37.8916,
    "longitud": -4.7727
  },
  {
    "nombre": "Hipólita: La Reina de las Amazonas",
    "ubicacion": "Calle Tomás Borrás, 10 28045 Madrid España",
    "web": "/",
    "genero": "Aventura",
    "puntuacion": "10",
    "precio": "€ Desde 20€ por persona",
    "jugadores": "No sabemos todavía el número final de jugadores ¿Pueden cambiarse después?",
    "descripcion": "Una bruja altera la paz con su Magia Sónica, entrad en su cabaña y detenedla… si su ritmo no os engancha antes",
    "latitud": 40.4165,
    "longitud": -3.7026
  },
  {
    "nombre": "Cambiando la Historia",
    "ubicacion": "Plaza Villa de Castelldefels, 4 29006 Málaga España",
    "web": "/",
    "genero": "Investigación",
    "puntuacion": "10",
    "precio": "€ Desde 11€ por persona",
    "jugadores": "De 2 a 6 jugadores",
    "descripcion": "¿Os atrevéis a robar el diamante de la suerte y escapar antes de que el tiempo se acabe?",
    "latitud": 36.7202,
    "longitud": -4.4203
  },
  {
    "nombre": "Saw Experience",
    "ubicacion": "Carrer Galileu, 158 08028 Barcelona España",
    "web": "/",
    "genero": "Miedo",
    "puntuacion": "9.1",
    "precio": "€ Desde 15€ por persona",
    "jugadores": "No sabemos todavía el número final de jugadores ¿Pueden cambiarse después?",
    "descripcion": "A bordo de un barco pirata, enfrentaréis tormentas y maldiciones hasta encontrar el tesoro perdido de los aztecas",
    "latitud": 41.3888,
    "longitud": 2.159
  },